"facility_id","common_name","address","city","zip_code","block_lot","owned_leased","dept_id_for_jurisdiction","jurisdiction","gross_sq_ft","longitude","latitude","supervisor_district","city_tenants","land_id","geom","data_last_updated","data_as_of","data_loaded_at"
"3389","ELECTRICAL SUBSTATION BB - 787-BB",,"San Francisco","94128",,"Own","34","Airport (Sfo)",,"-122.39691617699998","37.63151271300006",,,"635","POINT (-122.396916177 37.631512713)","2025/10/21 05:09:20 PM","2026/02/27 09:50:00 AM","2026/03/06 10:20:52 AM"
"3407","AIR TRAIN TERMINAL T1 - 279","279 UPPER DOMESTIC LOOP","San Francisco","94128",,"Own","34","Airport (Sfo)",,"-122.38567423999996","37.61518349500005",,,"635","POINT (-122.38567424 37.615183495)","2025/10/21 05:09:20 PM","2026/02/27 09:50:00 AM","2026/03/06 10:20:52 AM"
"3185","SE DIGEST GROUP #1 CTRL- 620","1700 Jerrold Ave","San Francisco","94124","5313002","Own","47","Public Utilities Commission",,"-122.39015065699999","37.74218902500007","10",,"792","POINT (-122.390150657 37.742189025)","2025/10/21 05:09:20 PM","2026/02/27 09:50:00 AM","2026/03/06 10:20:52 AM"
"1489","Fox Plaza","1390 Market St","San Francisco","94102","0813007","Lease","9","Non-City",,"-122.41744218199995","37.77717442900007","6","City Attorney: Public Health: Children Youth And Families: Human Services Agency","1,129","POINT (-122.417442182 37.777174429)","2017/12/21 10:38:28 PM","2026/02/27 09:50:00 AM","2026/03/06 10:20:52 AM"
"1035","Lower Shang","32560 Mather Rd","Groveland","95321","681600100","Own","49","Recreation And Parks",,"-119.85613576899999","37.881269985000074",,,"1,199","POINT (-119.856135769 37.881269985)","2016/09/12 09:00:00 AM","2026/02/27 09:50:00 AM","2026/03/06 10:20:52 AM"
"1648","Stern Grove - New Stage","2899 19TH AVE","San Francisco","94132","2488001","Own","49","Recreation And Parks","1,134","-122.47926297899994","37.73614553200008","4",,"74","POINT (-122.479262979 37.736145532)","2016/09/12 09:00:00 AM","2026/02/27 09:50:00 AM","2026/03/06 10:20:52 AM"
"331","Cabin #71","32560 Mather Rd","Groveland","95321","681600100","Own","49","Recreation And Parks",,"-119.85373773099997","37.880830367000044",,,"1,199","POINT (-119.853737731 37.880830367)","2016/09/12 09:00:00 AM","2026/02/27 09:50:00 AM","2026/03/06 10:20:52 AM"
"533","Corp Yard Gas Station","100 Martin Luther King Dr","San Francisco","94117","1263011","Own","49","Recreation And Parks","5,929","-122.46061627999995","37.76894882000005","7",,"56","POINT (-122.46061628 37.76894882)","2016/09/12 09:00:00 AM","2026/02/27 09:50:00 AM","2026/03/06 10:20:52 AM"
"832","H. Hetchy-Warnerville Substation/Switchyard","10501 Warnerville Rd","Oakdale","95361",,"Own","47","Public Utilities Commission","1,835","-120.80243618999998","37.74159451200006",,,"1,204","POINT (-120.80243619 37.741594512)","2016/09/12 09:00:00 AM","2026/02/27 09:50:00 AM","2026/03/06 10:20:52 AM"
"1073","Maxine Hall Health Center","1301 Pierce St","San Francisco","94115","0728005A","Own","72","Public Health","20,590","-122.43603595199994","37.78223856200003","5",,"363","POINT (-122.436035952 37.782238562)","2016/09/12 09:00:00 AM","2026/02/27 09:50:00 AM","2026/03/06 10:20:52 AM"
"2020","Pier 90 - Maintenance Bldg","Cargo Way","San Francisco","94124","4502A002","Own","46","Port","1,260","-122.37779736899995","37.74383117200006","10",,"783","POINT (-122.377797369 37.743831172)","2018/01/18 10:07:25 PM","2026/02/27 09:50:00 AM","2026/03/06 10:20:52 AM"
"1669","Strybing Pump Stn","Lincoln Way and 09th Ave","San Francisco","94117","1263011","Own","49","Recreation And Parks","702","-122.46694192199999","37.766102008000075","7",,"56","POINT (-122.466941922 37.766102008)","2019/02/11 07:26:15 PM","2026/02/27 09:50:00 AM","2026/03/06 10:20:52 AM"
"1068","Mather Bath House C","32560 Mather Rd","Groveland","95321","681600100","Own","49","Recreation And Parks",,"-119.85305408999994","37.88096186000007",,,"1,199","POINT (-119.85305409 37.88096186)","2016/09/12 09:00:00 AM","2026/02/27 09:50:00 AM","2026/03/06 10:20:52 AM"
"625","Earl P. Mills Community Center","100 WHITNEY YOUNG CIR","San Francisco","94124","4711006","Own","52","Human Services Agency","15,000","-122.38400188599996","37.73416123000004","10",,"592","POINT (-122.384001886 37.73416123)","2024/10/28 06:24:32 PM","2026/02/27 09:50:00 AM","2026/03/06 10:20:52 AM"
"999","LAUNDRY/MEDICAL - LOG CABIN","500 Log Cabin Ranch Road","La Honda","94020","083300010","Own","21","Juvenile Probation","2,600","-122.25682464999994","37.305214093000075",,,"921","POINT (-122.25682465 37.305214093)","2025/07/09 08:55:39 PM","2026/02/27 09:50:00 AM","2026/03/06 10:20:52 AM"
"516","Conservatory Greenhouse 3","100 John F Kennedy Dr","San Francisco","94117","1263011","Own","49","Recreation And Parks","1,645","-122.46008376399999","37.77300185800004","1",,"56","POINT (-122.460083764 37.773001858)","2019/02/08 11:37:16 PM","2026/02/27 09:50:00 AM","2026/03/06 10:20:52 AM"
"1348","Wholesale Produce Market - Public Dock 2 Middle","2002 Jerrold Ave","San Francisco","94124","5281020","Own","63","Gsa - Real Estate Division","5,200","-122.397364703","37.74329527000003","10",,"165","POINT (-122.397364703 37.74329527)","2017/05/04 04:11:34 PM","2026/02/27 09:50:00 AM","2026/03/06 10:20:52 AM"
"24","19th - Ocean Parking Lot","3000 19th Ave","San Francisco","94132","7226016","Own","42","Municipal Transportation Agency","5,920","-122.47461099799995","37.732031144000075","7",,"762","POINT (-122.474610998 37.732031144)","2017/06/05 09:15:52 PM","2026/02/27 09:50:00 AM","2026/03/06 10:20:52 AM"
"1839","Washington Square Bathrooms","600 Columbus Ave","San Francisco","94133","0102001","Own","49","Recreation And Parks","292","-122.41054163099994","37.80096862000005","3",,"134","POINT (-122.410541631 37.80096862)","2016/09/12 09:00:00 AM","2026/02/27 09:50:00 AM","2026/03/06 10:20:52 AM"
"183","Bessie Carmichael / Filipino Education Ctr (6-8)","824 Harrison St","San Francisco","94107","3752012","Own","16","School District (Sfusd)","13,654","-122.40047915999997","37.780554883000036","6",,"497","POINT (-122.40047916 37.780554883)","2016/09/12 09:00:00 AM","2026/02/27 09:50:00 AM","2026/03/06 10:20:52 AM"
"1077","McLaren Lodge","501 Stanyan St","San Francisco","94117","1263011","Own","49","Recreation And Parks","4,964","-122.45450307099998","37.77217608900003","1",,"56","POINT (-122.454503071 37.772176089)","2016/09/12 09:00:00 AM","2026/02/27 09:50:00 AM","2026/03/06 10:20:52 AM"
"1017","Lincoln Park Sm Maint Bldg","300 34th Ave","San Francisco","94121","1313028","Own","49","Recreation And Parks","684","-122.49832261499995","37.784258410000064","1",,"93","POINT (-122.498322615 37.78425841)","2016/09/12 09:00:00 AM","2026/02/27 09:50:00 AM","2026/03/06 10:20:52 AM"
"1975","Pier 70 - Pier 68 - Office Bldg Annex to #101, Bldg. #40","590 20TH ST","San Francisco","94107","9900070","Own","46","Port","11,800","-122.38595231199997","37.76203009900007","10",,"370","POINT (-122.385952312 37.762030099)","2025/10/21 05:28:55 PM","2026/02/27 09:50:00 AM","2026/03/06 10:20:52 AM"
"1368","Salt Water Pumping Station #2 (Fort Mason)","3301 Van Ness Ave","San Francisco","94109","0409002","Lease","9","Non-City",,"-122.42691671499995","37.80785308900005","2","Public Utilities Commission","607","POINT (-122.426916715 37.807853089)","2017/12/28 10:59:52 PM","2026/02/27 09:50:00 AM","2026/03/06 10:20:52 AM"
"3521","LGBTQ+ History Museum Site","2280 Market St","San Francisco","94114","3560013","Own","63","Gsa - Real Estate Division",,"-122.43282722899994","37.764890292000075","8",,"1,303","POINT (-122.432827229 37.764890292)","2024/12/18 11:39:55 PM","2026/02/27 09:50:00 AM","2026/03/06 10:20:52 AM"
"299","Cabin #25","32560 Mather Rd","Groveland","95321","681600100","Own","49","Recreation And Parks",,"-119.85373773099997","37.880830367000044",,,"1,199","POINT (-119.853737731 37.880830367)","2016/09/12 09:00:00 AM","2026/02/27 09:50:00 AM","2026/03/06 10:20:52 AM"
"1782","Trans-Ocean Avenue Turnaround","425 Geneva Ave","San Francisco","94112","6949015","Own","42","Municipal Transportation Agency",,"-122.44690418799996","37.72101782400006","11",,"645","POINT (-122.446904188 37.721017824)","2016/09/12 09:00:00 AM","2026/02/27 09:50:00 AM","2026/03/06 10:20:52 AM"
"141","155-165 Grove St","155 Grove St","San Francisco","94102","0811204","Own","103","Mayor","4,186","-122.41916027099995","37.77812761800004","5",,"1,299","POINT (-122.419160271 37.778127618)","2024/03/15 10:07:43 PM","2026/02/27 09:50:00 AM","2026/03/06 10:20:52 AM"
"848","Harding Park Maintenance Bldg","99 Harding Rd","San Francisco","94132","7283004","Own","49","Recreation And Parks","8,001","-122.48576749399996","37.71836911100007","7",,"810","POINT (-122.485767494 37.718369111)","2019/02/06 09:34:54 PM","2026/02/27 09:50:00 AM","2026/03/06 10:20:52 AM"
"726","Fire Station #43","720 Moscow St","San Francisco","94112","6338024","Own","38","Fire Department","10,800","-122.43167870699995","37.71634867300003","11",,"308","POINT (-122.431678707 37.716348673)","2016/09/12 09:00:00 AM","2026/02/27 09:50:00 AM","2026/03/06 10:20:52 AM"
"3516","1321 Mission St","1321 Mission St","San Francisco","94103","3509043","Own","121","Homelessness And Supportive Housing",,"-122.41478151999996","37.77589960800003","6",,"1,295","POINT (-122.41478152 37.775899608)","2022/11/30 12:03:16 AM","2026/02/27 09:50:00 AM","2026/03/06 10:20:52 AM"
"1215","Paint & Carpentry Shop","100 Martin Luther King Dr","San Francisco","94117","1263011","Own","49","Recreation And Parks","1,200","-122.46251106599999","37.768630933000054","7",,"56","POINT (-122.462511066 37.768630933)","2019/02/11 07:19:07 PM","2026/02/27 09:50:00 AM","2026/03/06 10:20:52 AM"
"1721","SWL 303 - The Bay Company, Hoppe, Arthur N.","496 Jefferson St","San Francisco","94133","9900070","Own","46","Port","8,339","-122.42058137499998","37.80777258100005","3",,"370","POINT (-122.420581375 37.807772581)","2025/10/21 05:28:55 PM","2026/02/27 09:50:00 AM","2026/03/06 10:20:52 AM"
"3183","SE SED. CONTROL - 043","1700 Jerrold Ave","San Francisco","94124","5313002","Own","47","Public Utilities Commission",,"-122.391441612","37.74258497000005","10",,"792","POINT (-122.391441612 37.74258497)","2025/10/21 05:09:20 PM","2026/02/27 09:50:00 AM","2026/03/06 10:20:52 AM"
"712","Fire Station #3","1067 Post St","San Francisco","94109","0693018","Own","38","Fire Department","8,000","-122.41932098399997","37.786641204000034","3",,"328","POINT (-122.419320984 37.786641204)","2016/09/12 09:00:00 AM","2026/02/27 09:50:00 AM","2026/03/06 10:20:52 AM"
"3067","KITCHEN - LOG CABIN","500 Log Cabin Ranch Rd","La Honda","94020","083300010","Own","21","Juvenile Probation",,"-122.25645900699999","37.30479052600003",,,"921","POINT (-122.256459007 37.304790526)","2025/07/09 08:55:39 PM","2026/02/27 09:50:00 AM","2026/03/06 10:20:52 AM"
"524","Conservatory Rose House","100 John F Kennedy Dr","San Francisco","94117","1263011","Own","49","Recreation And Parks",,"-122.46036309399994","37.772709364000036","1",,"56","POINT (-122.460363094 37.772709364)","2019/02/11 10:25:38 PM","2026/02/27 09:50:00 AM","2026/03/06 10:20:52 AM"
"3338","SamTrans Right of Way - Millbrae","Millbrae","Millbrae","94030",,"Lease","9","Non-City",,"-122.39698324899996","37.610205560000054",,"Technology",,"POINT (-122.396983249 37.61020556)","2017/12/18 11:22:09 PM","2026/02/27 09:50:00 AM","2026/03/06 10:20:52 AM"
"3186","SE DIGEST GROUP #2 CTRL- 680","1700 Jerrold Ave","San Francisco","94124","5313002","Own","47","Public Utilities Commission",,"-122.39059707499996","37.74214509300003","10",,"792","POINT (-122.390597075 37.742145093)","2025/10/21 05:09:20 PM","2026/02/27 09:50:00 AM","2026/03/06 10:20:52 AM"
"1633","St Mary's Rec Center","95 Justin Dr","San Francisco","94112","5801002","Own","49","Recreation And Parks","23,307","-122.42170980499998","37.734235341000044","9",,"26","POINT (-122.421709805 37.734235341)","2016/09/12 09:00:00 AM","2026/02/27 09:50:00 AM","2026/03/06 10:20:52 AM"
"655","Fac. 200 - World Trade Club Restaurant","San Francisco Ferry Bldg","San Francisco","94105","9900070","Own","46","Port","30,048","-122.39185845199995","37.79575865000004","3",,"370","POINT (-122.391858452 37.79575865)","2025/10/21 05:28:55 PM","2026/02/27 09:50:00 AM","2026/03/06 10:20:52 AM"
"768","Garfield Square Clubhouse","3100 26th St","San Francisco","94110","6523001","Own","49","Recreation And Parks","2,320","-122.41198604099998","37.74993629200003","9",,"16","POINT (-122.411986041 37.749936292)","2016/09/12 09:00:00 AM","2026/02/27 09:50:00 AM","2026/03/06 10:20:52 AM"
"114","Alioto Gazebo","490 Capp St","San Francisco","94110","3595016","Own","49","Recreation And Parks",,"-122.41825073899997","37.75891530900003","9",,"57","POINT (-122.418250739 37.758915309)","2016/09/12 09:00:00 AM","2026/02/27 09:50:00 AM","2026/03/06 10:20:52 AM"
"1403","RICHMOND SUBSTATION","435 8th Ave","San Francisco","94118","1536004","Own","42","Municipal Transportation Agency","5,998","-122.46658603199995","37.780193043000054","1",,"826","POINT (-122.466586032 37.780193043)","2025/10/21 05:09:20 PM","2026/02/27 09:50:00 AM","2026/03/06 10:20:52 AM"
"3170","Richmond Neighborhood Center","750 31st Ave","San Francisco","94121","1614008","Own","16","School District (Sfusd)",,"-122.49028312999997","37.775099813000054","1",,"442","POINT (-122.49028313 37.775099813)","2025/10/21 05:09:20 PM","2026/02/27 09:50:00 AM","2026/03/06 10:20:52 AM"
"1117","Mission Branch Library","300 Bartlett St","San Francisco","94110","6515001","Own","48","Public Library","10,479","-122.41982646399998","37.75196896600005","9",,"199","POINT (-122.419826464 37.751968966)","2016/09/12 09:00:00 AM","2026/02/27 09:50:00 AM","2026/03/06 10:20:52 AM"
"487","Civic Center Courthouse","400 McAllister St","San Francisco","94102","0766002","Own","4","Superior Court","231,000","-122.41965995399994","37.780436491000046","5",,"611","POINT (-122.419659954 37.780436491)","2016/09/12 09:00:00 AM","2026/02/27 09:50:00 AM","2026/03/06 10:20:52 AM"
"3473","MS Hayward Historic Clubhouse","1016 Laguna St","San Francisco","94102","0759001","Own","49","Recreation And Parks",,"-122.42671429999996","37.780747493000035","5",,"601","POINT (-122.4267143 37.780747493)","2019/02/21 11:03:31 PM","2026/02/27 09:50:00 AM","2026/03/06 10:20:52 AM"
"1991","Pier 70 - SWL 345 - Kneass Boatworks, Main Office/boat storage","420 22nd St","San Francisco","94107","4111003","Own","46","Port","1","-122.38300091999997","37.76039202100003","10",,"733","POINT (-122.38300092 37.760392021)","2018/01/18 10:07:25 PM","2026/02/27 09:50:00 AM","2026/03/06 10:20:52 AM"
"1901","Pier 3 - Bulkhead/Shed Building","The Embarcadero","San Francisco","94109","9900070","Own","46","Port","24,950","-122.39575688199994","37.79763200600007","3",,"370","POINT (-122.395756882 37.797632006)","2025/10/21 05:28:55 PM","2026/02/27 09:50:00 AM","2026/03/06 10:20:52 AM"
"3441","BOARDING AREA F JETWAY BUILDING - 400M","400 UPPER DOMESTIC LOOP","San Francisco","94128",,"Own","34","Airport (Sfo)",,"-122.38914559399996","37.62087971500006",,,"635","POINT (-122.389145594 37.620879715)","2025/10/21 05:09:20 PM","2026/02/27 09:50:00 AM","2026/03/06 10:20:52 AM"
"1468","Sect 4 Gardener Cpd @ Boathouse","John F Kennedy Dr & Stow Lake Dr","San Francisco","94117","1263011","Own","49","Recreation And Parks",,"-122.47718192999997","37.77061459200007","7",,"56","POINT (-122.47718193 37.770614592)","2019/02/11 07:15:19 PM","2026/02/27 09:50:00 AM","2026/03/06 10:20:52 AM"
"3287","Parkmerced Shopping Center","51 Cambon Dr","San Francisco","94132",,"Lease","9","Non-City",,"-122.47364597599994","37.71751317600007","7","Gsa - City Administrator's Office",,"POINT (-122.473645976 37.717513176)","2017/12/26 10:29:21 PM","2026/02/27 09:50:00 AM","2026/03/06 10:20:52 AM"
"3060","HALL OF JUSTICE GAS STATION","950 Bryant St","San Francisco","94103","3758127","Own","78","Gsa - Office Of Contract Administration",,"-122.40588533999994","37.77366993500004","6",,"187","POINT (-122.40588534 37.773669935)","2018/01/18 10:03:41 PM","2026/02/27 09:50:00 AM","2026/03/06 10:20:52 AM"
"2050","Moscone West","747 Howard St","San Francisco","94103","3724035","Own","80","Gsa - Convention Facilities Management","775,000","-122.40328578099997","37.78325090200008","6",,"804","POINT (-122.403285781 37.783250902)","2025/10/21 11:11:05 PM","2026/02/27 09:50:00 AM","2026/03/06 10:20:52 AM"
"858","Helen Wills Clubhouse","1401 Broadway","San Francisco","94109","0573001","Own","49","Recreation And Parks","3,082","-122.42027993299996","37.79576853900005","3",,"122","POINT (-122.420279933 37.795768539)","2016/09/12 09:00:00 AM","2026/02/27 09:50:00 AM","2026/03/06 10:20:52 AM"
"352","Cabin 31","32560 Mather Rd","Groveland","95321","681600100","Own","49","Recreation And Parks",,"-119.85373773099997","37.880830367000044",,,"1,199","POINT (-119.853737731 37.880830367)","2016/09/12 09:00:00 AM","2026/02/27 09:50:00 AM","2026/03/06 10:20:52 AM"
"1811","VALLEJO STREET Parking Garage","766 Vallejo St","San Francisco","94133","0130043","Own","42","Municipal Transportation Agency","70,760","-122.40991067799996","37.79872657300007","3",,"163","POINT (-122.409910678 37.798726573)","2025/10/21 05:09:20 PM","2026/02/27 09:50:00 AM","2026/03/06 10:20:52 AM"
"731","Fire Station #7 - Division 3 Headquarters","2300 Folsom St","San Francisco","94110","3594059","Own","38","Fire Department","16,488","-122.41504181999994","37.76025539700004","9",,"314","POINT (-122.41504182 37.760255397)","2016/09/12 09:00:00 AM","2026/02/27 09:50:00 AM","2026/03/06 10:20:52 AM"
"1084","Mclaren Park La Grande Tank","61 JOHN F SHELLEY DR","San Francisco","94134","6190066","Own","49","Recreation And Parks",,"-122.42420507599996","37.72312695800008","11",,"779","POINT (-122.424205076 37.723126958)","2026/02/27 12:46:52 AM","2026/02/27 09:50:00 AM","2026/03/06 10:20:52 AM"
"779","GENEVA AVE./MUNICH SFMTA Operator Bathroom","1380 Geneva Ave","San Francisco","94112",,"Own","42","Municipal Transportation Agency","75","-122.433275606","37.71290200200008","11",,"0","POINT (-122.433275606 37.712902002)","2025/10/21 05:09:20 PM","2026/02/27 09:50:00 AM","2026/03/06 10:20:52 AM"
"12","BEACH CHALET Shed","1000 Great Hwy","San Francisco","94121","1263011","Own","49","Recreation And Parks","156","-122.51005211699999","37.76904896600007","4",,"56","POINT (-122.510052117 37.769048966)","2017/03/31 06:36:36 PM","2026/02/27 09:50:00 AM","2026/03/06 10:20:52 AM"
"754","Francis Scott Key Elementary","1530 43rd Ave","San Francisco","94122","1888001","Own","16","School District (Sfusd)","52,000","-122.50199953099997","37.75809770600006","4",,"455","POINT (-122.501999531 37.758097706)","2016/09/12 09:00:00 AM","2026/02/27 09:50:00 AM","2026/03/06 10:20:52 AM"
"1127","Mission PG Clubhouse","3555 19th St","San Francisco","94110","3597061","Own","49","Recreation And Parks",,"-122.42248002699995","37.759537428000044","9",,"54","POINT (-122.422480027 37.759537428)","2016/09/12 09:00:00 AM","2026/02/27 09:50:00 AM","2026/03/06 10:20:52 AM"
"891","Hyde Street Pier","2905 Hyde St","San Francisco","94109","9900070","Own","46","Port","18,689","-122.42098174799997","37.80879460800003","2",,"370","POINT (-122.420981748 37.808794608)","2025/10/21 05:28:55 PM","2026/02/27 09:50:00 AM","2026/03/06 10:20:52 AM"
"2046","Lake Merced maintenance facility 2","991 Lake Merced Blvd","San Francisco","94132","7283004","Own","49","Recreation And Parks",,"-122.48617064099994","37.71685036000008","7",,"810","POINT (-122.486170641 37.71685036)","2019/02/06 09:45:07 PM","2026/02/27 09:50:00 AM","2026/03/06 10:20:52 AM"
"1932","Pier 47 - Scomas Restaurant","1965 Al Scoma Way","San Francisco","94133","9900070","Own","46","Port","11,001","-122.41857698799998","37.80895452800007","3",,"370","POINT (-122.418576988 37.808954528)","2025/10/21 05:28:55 PM","2026/02/27 09:50:00 AM","2026/03/06 10:20:52 AM"
"1977","Pier 70 - Pier 68 - Office Building #104","590 20TH ST","San Francisco","94107","9900070","Own","46","Port","37,641","-122.38595231199997","37.76203009900007","10",,"370","POINT (-122.385952312 37.762030099)","2025/10/21 05:28:55 PM","2026/02/27 09:50:00 AM","2026/03/06 10:20:52 AM"
"369","Cabrillo Storage Shed","858 38th Ave","San Francisco","94121","1681013","Own","49","Recreation And Parks",,"-122.49871645999997","37.77310620900005","1",,"85","POINT (-122.49871646 37.773106209)","2016/09/12 09:00:00 AM","2026/02/27 09:50:00 AM","2026/03/06 10:20:52 AM"
"1376","Ravenswood Construction Management Office","5000 University Ave","Menlo Park","94025",,"Own","47","Public Utilities Commission",,"-122.13533647799994","37.48345150200004",,,"10,000","POINT (-122.135336478 37.483451502)","2026/02/27 12:24:35 AM","2026/02/27 09:50:00 AM","2026/03/06 10:20:52 AM"
"3153","ZOO - TERRACE CAFÉ","1 Zoo Rd","San Francisco","94132","7281002","Own","49","Recreation And Parks",,"-122.49978386199996","37.73321831900006","7",,"489","POINT (-122.499783862 37.733218319)","2016/09/12 09:00:00 AM","2026/02/27 09:50:00 AM","2026/03/06 10:20:52 AM"
"1764","The Episcopal Sanctuary (Shelter)","201 08th St","San Francisco","94103","3730038","Lease","9","Non-City",,"-122.41116200099998","37.77624128700006","6","Homelessness And Supportive Housing","1,158","POINT (-122.411162001 37.776241287)","2017/12/28 09:20:15 PM","2026/02/27 09:50:00 AM","2026/03/06 10:20:52 AM"
"3371","SFO OFFICES / CARGO BUILDING - 710","710 NORTH MCDONNELL ROAD","San Francisco","94128",,"Own","34","Airport (Sfo)",,"-122.39982431799996","37.62519083900003",,,"635","POINT (-122.399824318 37.625190839)","2025/10/21 05:09:20 PM","2026/02/27 09:50:00 AM","2026/03/06 10:20:52 AM"
"1604","SOMA Eugene Friend Rec Center","270 06th St","San Francisco","94103","3731111","Own","49","Recreation And Parks","17,680","-122.40652312099996","37.778794230000074","6",,"35","POINT (-122.406523121 37.77879423)","2016/09/12 09:00:00 AM","2026/02/27 09:50:00 AM","2026/03/06 10:20:52 AM"
"1048","Malcolm X Elementary","350 Harbor Rd","San Francisco","94124","4700071","Own","16","School District (Sfusd)","50,800","-122.38095370299999","37.73415421000004","10",,"282","POINT (-122.380953703 37.73415421)","2017/05/25 11:01:19 PM","2026/02/27 09:50:00 AM","2026/03/06 10:20:52 AM"
"3320","The Academy - San Francisco @ McAteer","555 Portola Dr","San Francisco","94131","7560003","Own","16","School District (Sfusd)",,"-122.44948465599998","37.745158477000075","8",,"874","POINT (-122.449484656 37.745158477)","2017/05/30 04:09:30 PM","2026/02/27 09:50:00 AM","2026/03/06 10:20:52 AM"
"762","Funston Senior Center","1800 Chestnut St","San Francisco","94123","0469001","Own","49","Recreation And Parks","621","-122.43317250599995","37.801412783000046","2",,"441","POINT (-122.433172506 37.801412783)","2016/09/12 09:00:00 AM","2026/02/27 09:50:00 AM","2026/03/06 10:20:52 AM"
"3114","ZSFGH - Building 90","1001 Potrero Ave","San Francisco","94110","4154001","Own","72","Public Health",,"-122.40578202299997","37.757333075000076","10",,"614","POINT (-122.405782023 37.757333075)","2017/08/15 08:40:21 PM","2026/02/27 09:50:00 AM","2026/03/06 10:20:52 AM"
"3463","964 Natoma St","964 Natoma St","San Francisco","94103","3510035","Own","63","Gsa - Real Estate Division",,"-122.41579131799995","37.773906141000055","6",,"1,234","POINT (-122.415791318 37.773906141)","2018/10/24 10:05:33 PM","2026/02/27 09:50:00 AM","2026/03/06 10:20:52 AM"
"283","Cabin #100","32560 Mather Rd","Groveland","95321","681600100","Own","49","Recreation And Parks",,"-119.85373773099997","37.880830367000044",,,"1,199","POINT (-119.853737731 37.880830367)","2016/09/12 09:00:00 AM","2026/02/27 09:50:00 AM","2026/03/06 10:20:52 AM"
"189","Bison Paddock","1237 John F Kennedy Dr","San Francisco","94117","1263011","Own","49","Recreation And Parks",,"-122.49932677899994","37.76908395800007","1",,"56","POINT (-122.499326779 37.769083958)","2019/02/11 07:24:58 PM","2026/02/27 09:50:00 AM","2026/03/06 10:20:52 AM"
"3148","ZOO - PACHYDERM BARN/PIGMY HIPPO","1 Zoo Rd","San Francisco","94132","7281002","Own","49","Recreation And Parks",,"-122.50202944999995","37.73277699000005","7",,"489","POINT (-122.50202945 37.73277699)","2016/09/12 09:00:00 AM","2026/02/27 09:50:00 AM","2026/03/06 10:20:52 AM"
"3038","Academy of Sciences","55 Music Concourse Dr","San Francisco","94118","1263011","Own","57","Academy Of Sciences",,"-122.46596524899996","37.76944547700003","7",,"56","POINT (-122.465965249 37.769445477)","2018/03/14 10:49:35 PM","2026/02/27 09:50:00 AM","2026/03/06 10:20:52 AM"
"685","Fire Chief's Residence","870 Bush St","San Francisco","94108","0274010","Own","38","Fire Department","4,500","-122.41159217899997","37.78999924100003","3",,"333","POINT (-122.411592179 37.789999241)","2016/09/12 09:00:00 AM","2026/02/27 09:50:00 AM","2026/03/06 10:20:52 AM"
"3505","921 Howard St","921 Howard St","San Francisco","94103","3732761","Own","103","Mayor",,"-122.40515846099998","37.780994115000055","6",,"1,290","POINT (-122.405158461 37.780994115)","2021/06/09 12:17:03 AM","2026/02/27 09:50:00 AM","2026/03/06 10:20:52 AM"
"3416","TERMINAL 3 - 400","400 UPPER DOMESTIC LOOP","San Francisco","94128",,"Own","34","Airport (Sfo)",,"-122.387639176","37.61778995800006",,,"635","POINT (-122.387639176 37.617789958)","2025/10/21 05:09:20 PM","2026/02/27 09:50:00 AM","2026/03/06 10:20:52 AM"
"793","GGP -- Reservoir and Pump Station","20 Overlook Dr","San Francisco","94122","1263011","Own","49","Recreation And Parks",,"-122.48059726099996","37.77057286500008","1",,"56","POINT (-122.480597261 37.770572865)","2019/02/09 12:33:33 AM","2026/02/27 09:50:00 AM","2026/03/06 10:20:52 AM"
"1809","Urban Forestry Office Trailer 1","2323 Cesar Chavez St","San Francisco","94124","4341001","Own","77","Public Works","695","-122.40039943799997","37.749048585000025","10",,"182","POINT (-122.400399438 37.749048585)","2016/09/12 09:00:00 AM","2026/02/27 09:50:00 AM","2026/03/06 10:20:52 AM"
"2027","1155 Market St Building","1155 Market St","San Francisco","94103","3702820","Lease","9","Non-City",,"-122.41340897899994","37.77922259600007","6","Mayor: Public Works: Human Resources: Assessor-Recorder: Treasurer-Tax Collector: Controller","1,153","POINT (-122.413408979 37.779222596)","2017/12/20 07:23:39 PM","2026/02/27 09:50:00 AM","2026/03/06 10:20:52 AM"
"3301","TI Athletic Field - 8TH/AVE M","Avenue M & 8TH TI ST","San Francisco","94130",,"Own","114","Treasure Island Development Authority",,"-122.36704764699999","37.825536724000074","6",,,"POINT (-122.367047647 37.825536724)","2026/02/27 12:59:43 AM","2026/02/27 09:50:00 AM","2026/03/06 10:20:52 AM"
"948","Jones St Tank & Tank House","1239 Jones St","San Francisco","94109","0220004","Own","47","Public Utilities Commission",,"-122.41485563999998","37.79282405600003","3",,"335","POINT (-122.41485564 37.792824056)","2016/09/12 09:00:00 AM","2026/02/27 09:50:00 AM","2026/03/06 10:20:52 AM"
"1105","Midtown Terrace Clubhouse","210 Olympia Way","San Francisco","94131","2736002","Own","49","Recreation And Parks","2,176","-122.45585129899996","37.751588552000044","7",,"775","POINT (-122.455851299 37.751588552)","2016/09/12 09:00:00 AM","2026/02/27 09:50:00 AM","2026/03/06 10:20:52 AM"
"1045","Main St & Mission St SFMTA Operator Bathroom","Main St & Mission St","San Francisco","94105",,"Own","42","Municipal Transportation Agency","68","-122.39500451099997","37.792019794000055","6",,"0","POINT (-122.395004511 37.792019794)","2016/09/12 09:00:00 AM","2026/02/27 09:50:00 AM","2026/03/06 10:20:52 AM"
"3248","Valencia/Stevenson Dog Park and Parking","Valencia and Duboce","San Francisco","94103",,"Lease","9","Non-City",,"-122.42224475699999","37.77042477100008","9","Gsa - Real Estate Division",,"POINT (-122.422244757 37.770424771)","2017/12/27 07:38:05 PM","2026/02/27 09:50:00 AM","2026/03/06 10:20:52 AM"
"1400","Res. 2B So. Hill","57 Alta Vista Way","Daly City","94014",,"Lease","9","Non-City",,"-122.43015180999998","37.70394431300008",,"Technology",,"POINT (-122.43015181 37.703944313)","2017/12/26 11:31:26 PM","2026/02/27 09:50:00 AM","2026/03/06 10:20:52 AM"
"1359","PUC Water Millbrae","1000 El Camino Real","Millbrae","94030",,"Own","47","Public Utilities Commission",,"-122.39550900399996","37.60607700000003",,,"1,197","POINT (-122.395509004 37.606077)","2016/09/12 09:00:00 AM","2026/02/27 09:50:00 AM","2026/03/06 10:20:52 AM"
"951","Joseph Lee Rec Center","1395 Mendell St","San Francisco","94124","5310001","Own","49","Recreation And Parks","17,331","-122.38959952699997","37.73489373100006","10",,"879","POINT (-122.389599527 37.734893731)","2016/10/25 04:55:43 PM","2026/02/27 09:50:00 AM","2026/03/06 10:20:52 AM"
"74","7th Ave & California St SFMTA Operator Bathroom","4439 California St","San Francisco","94118",,"Own","42","Municipal Transportation Agency","75","-122.46526806099996","37.78481545100004","1",,"0","POINT (-122.465268061 37.784815451)","2016/09/12 09:00:00 AM","2026/02/27 09:50:00 AM","2026/03/06 10:20:52 AM"
"1336","Powell St. Railroad Station","Fulton St & 07th Ave","San Francisco","94117","1263011","Own","49","Recreation And Parks","26,751","-122.46479495599999","37.77332654800006","1",,"56","POINT (-122.464794956 37.773326548)","2019/02/09 12:35:23 AM","2026/02/27 09:50:00 AM","2026/03/06 10:20:52 AM"
"1116","Mission Bay Stormwater PS #4","880 Mission Bay Dr","San Francisco","94158","8709003","Own","47","Public Utilities Commission",,"-122.39718413199995","37.77038681500005","6",,"968","POINT (-122.397184132 37.770386815)","2016/09/12 09:00:00 AM","2026/02/27 09:50:00 AM","2026/03/06 10:20:52 AM"
"1040","LYON ST/GREENWICH ST SFMTA Operator Bathroom","Lyon St & Greenwich St","San Francisco","94123",,"Own","42","Municipal Transportation Agency","75","-122.44731208899998","37.79762989300008","2",,"0","POINT (-122.447312089 37.797629893)","2025/10/21 05:09:20 PM","2026/02/27 09:50:00 AM","2026/03/06 10:20:52 AM"
"3451","BOARDING AREA B - 200B","200 UPPER DOMESTIC LOOP","San Francisco","94128",,"Own","34","Airport (Sfo)",,"-122.38533053199995","37.61414051000003",,,"635","POINT (-122.385330532 37.61414051)","2025/10/21 05:09:20 PM","2026/02/27 09:50:00 AM","2026/03/06 10:20:52 AM"
"31","2275 | Pier 27 Adm/Pier 29 Annex","Pier 27","San Francisco","94111","9900070","Own","46","Port","11,800","-122.40108163899998","37.805332873000054","3",,"370","POINT (-122.401081639 37.805332873)","2025/10/21 05:19:46 PM","2026/02/27 09:50:00 AM","2026/03/06 10:20:52 AM"
"3208","DPW - Carport 4-G,H,J","2323 Cesar Chavez St","San Francisco","94124","4341001","Own","77","Public Works",,"-122.39976399299997","37.748996317000035","10",,"182","POINT (-122.399763993 37.748996317)","2025/10/21 05:09:20 PM","2026/02/27 09:50:00 AM","2026/03/06 10:20:52 AM"
"1966","Pier 70 - Pier 68 - Boiler/Steam Power House - #103","590 20TH ST","San Francisco","94107","9900070","Own","46","Port","1,860","-122.38595231199997","37.76203009900007","10",,"370","POINT (-122.385952312 37.762030099)","2025/10/21 05:28:55 PM","2026/02/27 09:50:00 AM","2026/03/06 10:20:52 AM"
"358","Cabins #110 & #111","32560 Mather Rd","Groveland","95321","681600100","Own","49","Recreation And Parks",,"-119.85373773099997","37.880830367000044",,,"1,199","POINT (-119.853737731 37.880830367)","2016/09/12 09:00:00 AM","2026/02/27 09:50:00 AM","2026/03/06 10:20:52 AM"
"1589","Sherman Elementary","1651 Union St","San Francisco","94123","0545001","Own","16","School District (Sfusd)","56,200","-122.42611796699998","37.79780159400008","2",,"402","POINT (-122.426117967 37.797801594)","2016/09/12 09:00:00 AM","2026/02/27 09:50:00 AM","2026/03/06 10:20:52 AM"
"3456","CNG FILLING STATION - 947B","947 NORTH FIELD ROAD","San Francisco","94128",,"Own","34","Airport (Sfo)",,"-122.39131965299998","37.638454645000024",,,"635","POINT (-122.391319653 37.638454645)","2025/10/21 05:09:20 PM","2026/02/27 09:50:00 AM","2026/03/06 10:20:52 AM"
"1599","Silver Terrace Maint Facilities","1700 Silver Ave","San Francisco","94124","5396011","Own","49","Recreation And Parks",,"-122.40247224099994","37.73253420800006","10",,"31","POINT (-122.402472241 37.732534208)","2016/09/12 09:00:00 AM","2026/02/27 09:50:00 AM","2026/03/06 10:20:52 AM"
"955","June Jordan High","325 La Grande Ave","San Francisco","94112","6071002","Own","16","School District (Sfusd)","151,600","-122.42525276199996","37.71924049900008","11",,"536","POINT (-122.425252762 37.719240499)","2017/05/30 05:20:58 PM","2026/02/27 09:50:00 AM","2026/03/06 10:20:52 AM"
"1945","Pier 49 Nicks Lighthouse (Wharf J-1)","2815 Taylor St","San Francisco","94133","9900070","Own","46","Port","2,238","-122.41656471499999","37.80889916800004","3",,"370","POINT (-122.416564715 37.808899168)","2025/10/21 05:28:55 PM","2026/02/27 09:50:00 AM","2026/03/06 10:20:52 AM"
"3281","424 Octavia - Parcel L","424 Octavia St","San Francisco","94102","0817078","Own","63","Gsa - Real Estate Division","13,595","-122.42411586299994","37.776106629000026","5",,"940","POINT (-122.424115863 37.776106629)","2019/08/27 12:28:45 AM","2026/02/27 09:50:00 AM","2026/03/06 10:20:52 AM"
"3141","ZOO - KANGAROO BLDG.*","1 Zoo Rd","San Francisco","94132","7281002","Own","49","Recreation And Parks",,"-122.50025002899997","37.73207805000004","7",,"489","POINT (-122.500250029 37.73207805)","2016/09/12 09:00:00 AM","2026/02/27 09:50:00 AM","2026/03/06 10:20:52 AM"
"449","Central Pump Station","23rd Ave & Sloat Blvd","San Francisco","94132","7206001","Own","47","Public Utilities Commission",,"-122.478835087","37.73414510900005","4",,"534","POINT (-122.478835087 37.734145109)","2016/09/12 09:00:00 AM","2026/02/27 09:50:00 AM","2026/03/06 10:20:52 AM"
"1021","Lloyd Lake Pump Station","John F Kennedy Dr & Transverse Dr","San Francisco","94117","1263011","Own","49","Recreation And Parks","255","-122.48127821599996","37.77120213300003","1",,"56","POINT (-122.481278216 37.771202133)","2019/02/08 11:52:22 PM","2026/02/27 09:50:00 AM","2026/03/06 10:20:52 AM"
"3525","333 7th St","333 7th St","San Francisco","94103","3754031","Own","72","Public Health",,"-122.40719977799995","37.77654440100008","6",,"1,308","POINT (-122.407199778 37.776544401)","2025/02/21 09:14:26 PM","2026/02/27 09:50:00 AM","2026/03/06 10:20:52 AM"
"986","Laguna Honda - North Residence","375 Laguna Honda Blvd","San Francisco","94116","2842007","Own","72","Public Health","208,377","-122.45652426099997","37.75004237400003","7",,"383","POINT (-122.456524261 37.750042374)","2017/04/28 09:45:33 PM","2026/02/27 09:50:00 AM","2026/03/06 10:20:52 AM"
"1007","1315-1319 Evans Ave","1315 Evans Ave","San Francisco","94124","5237037","Lease","9","Non-City",,"-122.38334430699996","37.73981930000008","10","Adult Probation","1,182","POINT (-122.383344307 37.7398193)","2026/02/26 11:24:07 PM","2026/02/27 09:50:00 AM","2026/03/06 10:20:52 AM"
"381","Camp Mather Priest Cabin","32560 Mather Rd","Groveland","95321","681600100","Own","49","Recreation And Parks",,"-119.85613576899999","37.881269985000074",,,"1,199","POINT (-119.856135769 37.881269985)","2016/09/12 09:00:00 AM","2026/02/27 09:50:00 AM","2026/03/06 10:20:52 AM"
"799","GGP Golf Course Clubhouse","970 47th Ave","San Francisco","94117","1263011","Own","49","Recreation And Parks","5,026","-122.50658690099999","37.76910127700006","1",,"56","POINT (-122.506586901 37.769101277)","2019/02/11 10:16:42 PM","2026/02/27 09:50:00 AM","2026/03/06 10:20:52 AM"
"3526","814-820 Bryant St Parking","814 Bryant St","San Francisco","94103","3759014","Own","63","Gsa - Real Estate Division",,"-122.40334442199998","37.77603800700007","6",,"1,306","POINT (-122.403344422 37.776038007)","2025/03/19 09:34:02 PM","2026/02/27 09:50:00 AM","2026/03/06 10:20:52 AM"
"337","Cabin #8","32560 Mather Rd","Groveland","95321","681600100","Own","49","Recreation And Parks",,"-119.85373773099997","37.880830367000044",,,"1,199","POINT (-119.853737731 37.880830367)","2016/09/12 09:00:00 AM","2026/02/27 09:50:00 AM","2026/03/06 10:20:52 AM"
"2090","Valve House","Calaveras  Alameda","Sunol","94586",,"Own","47","Public Utilities Commission",,"-121.81996496399995","37.495972332000065",,,,"POINT (-121.819964964 37.495972332)","2018/03/27 07:20:39 PM","2026/02/27 09:50:00 AM","2026/03/06 10:20:52 AM"
"169","BAYSHORE BLVD/SUNNYDALE SFMTA Operator Bathroom","Bay Shore Blvd & Sunnydale Ave","San Francisco","94134",,"Own","42","Municipal Transportation Agency","75","-122.40478501299998","37.70885372300006","10",,"0","POINT (-122.404785013 37.708853723)","2025/10/21 05:09:20 PM","2026/02/27 09:50:00 AM","2026/03/06 10:20:52 AM"
"167","BAY ST/TAYLOR ST SFMTA Operator Bathroom","Bay St & Taylor St","San Francisco","94133",,"Own","42","Municipal Transportation Agency","330","-122.41525031999998","37.80514044700004","3",,"0","POINT (-122.41525032 37.805140447)","2025/10/21 05:09:20 PM","2026/02/27 09:50:00 AM","2026/03/06 10:20:52 AM"
"463","Child Protective Center (CPC) @ Edgewood","1801 Vicente St","San Francisco","94116","2468A003","Lease","9","Non-City",,"-122.48625648999996","37.73798464400005","4","Human Services Agency","1,132","POINT (-122.48625649 37.737984644)","2017/12/28 09:17:43 PM","2026/02/27 09:50:00 AM","2026/03/06 10:20:52 AM"
"321","Cabin #47","32560 Mather Rd","Groveland","95321","681600100","Own","49","Recreation And Parks",,"-119.85373773099997","37.880830367000044",,,"1,199","POINT (-119.853737731 37.880830367)","2016/09/12 09:00:00 AM","2026/02/27 09:50:00 AM","2026/03/06 10:20:52 AM"
"939","Jerry Garcia Amphitheatre","61 JOHN F SHELLEY DR","San Francisco","94134","6190066","Own","49","Recreation And Parks",,"-122.41739818899998","37.72055504600007","9",,"779","POINT (-122.417398189 37.720555046)","2026/02/27 12:46:59 AM","2026/02/27 09:50:00 AM","2026/03/06 10:20:52 AM"
"1628","St Francis Yacht Club","99 Yacht Rd","San Francisco","94123","0900003","Own","49","Recreation And Parks","46,500","-122.44640195299996","37.807237239000074","2",,"102","POINT (-122.446401953 37.807237239)","2016/09/12 09:00:00 AM","2026/02/27 09:50:00 AM","2026/03/06 10:20:52 AM"
"1260","Pier 1  -  Port’s administrative offices.","190 The Embarcadero","San Francisco","94105","9900070","Own","46","Port","151,563","-122.39341578099999","37.79784257500006","3",,"370","POINT (-122.393415781 37.797842575)","2025/10/21 05:28:55 PM","2026/02/27 09:50:00 AM","2026/03/06 10:20:52 AM"
"1290","Pier 27 - Office Annex","The Embarcadero","San Francisco","94111","9900070","Own","46","Port","3,552","-122.40205768899995","37.80523845400006","3",,"370","POINT (-122.402057689 37.805238454)","2025/10/21 05:28:55 PM","2026/02/27 09:50:00 AM","2026/03/06 10:20:52 AM"
"202","Bryant Elementary and CDC","2641 25th St","San Francisco","94110","4277002","Own","16","School District (Sfusd)","32,500","-122.40481955099995","37.75158055600008","9",,"510","POINT (-122.404819551 37.751580556)","2016/09/12 09:00:00 AM","2026/02/27 09:50:00 AM","2026/03/06 10:20:52 AM"
"1308","Police Academy","350 Amber Dr","San Francisco","94124","7521005","Own","45","Police Department","19,332","-122.44148284899995","37.74419599200007","8",,"175","POINT (-122.441482849 37.744195992)","2016/09/12 09:00:00 AM","2026/02/27 09:50:00 AM","2026/03/06 10:20:52 AM"
"1013","Lincoln Park Maintenance Buildings","300 34th Ave","San Francisco","94121","1313028","Own","49","Recreation And Parks","1,125","-122.49832261499995","37.784258410000064","1",,"93","POINT (-122.498322615 37.78425841)","2016/09/12 09:00:00 AM","2026/02/27 09:50:00 AM","2026/03/06 10:20:52 AM"
"2009","Pier 70 - SWL 349 Traffic Dept. Shed - Bldg #66","420 22nd St","San Francisco","94107","4111003","Own","46","Port","22,116","-122.38300091999997","37.76039202100003","10",,"733","POINT (-122.38300092 37.760392021)","2018/01/18 10:07:25 PM","2026/02/27 09:50:00 AM","2026/03/06 10:20:52 AM"
"3350","MECHINICAL STRUCTURE - 120","120 LOWER DOMESTIC LOOP","San Francisco","94128",,"Own","34","Airport (Sfo)",,"-122.38851521799995","37.617179305000036",,,"635","POINT (-122.388515218 37.617179305)","2025/10/21 05:09:20 PM","2026/02/27 09:50:00 AM","2026/03/06 10:20:52 AM"
"1402","Rhododendron Dell Maintenance Shed","364 John F Kennedy Dr","San Francisco","94117","1263011","Own","49","Recreation And Parks","192","-122.46442974799999","37.77201879900008","7",,"56","POINT (-122.464429748 37.772018799)","2019/02/11 07:50:26 PM","2026/02/27 09:50:00 AM","2026/03/06 10:20:52 AM"
"1636","ST. MARY'S SQUARE Parking Garage","433 Kearny St","San Francisco","94108","0258003","Own","42","Municipal Transportation Agency","61,552","-122.40498677999994","37.79225863100004","3",,"672","POINT (-122.40498678 37.792258631)","2025/10/21 05:09:20 PM","2026/02/27 09:50:00 AM","2026/03/06 10:20:52 AM"
"1195","Nursery Potting Sheds","100 Martin Luther King Dr","San Francisco","94117","1263011","Own","49","Recreation And Parks",,"-122.46104701099995","37.76833210900003","7",,"56","POINT (-122.461047011 37.768332109)","2019/02/11 07:19:07 PM","2026/02/27 09:50:00 AM","2026/03/06 10:20:52 AM"
"3098","Pier 96 - Administration Building","Pier 96","San Francisco","94124","4502A002","Own","46","Port",,"-122.37814777599999","37.74354946200003","10",,"783","POINT (-122.378147776 37.743549462)","2018/01/18 10:07:24 PM","2026/02/27 09:50:00 AM","2026/03/06 10:20:52 AM"
"1655","Stow Lake Boat Dock","50 Stow Lake Dr","San Francisco","94117","1263011","Own","49","Recreation And Parks",,"-122.47697555599996","37.77053775200005","7",,"56","POINT (-122.476975556 37.770537752)","2019/02/08 11:50:09 PM","2026/02/27 09:50:00 AM","2026/03/06 10:20:52 AM"
"1318","Polo Fields and Stadium","1451 John F Kennedy Dr","San Francisco","94117","1263011","Own","49","Recreation And Parks","5,000","-122.49268606199996","37.76824199300006","4",,"56","POINT (-122.492686062 37.768241993)","2019/02/11 10:15:05 PM","2026/02/27 09:50:00 AM","2026/03/06 10:20:52 AM"
"3378","GSE - 750","750 WEST AREA DR","San Francisco","94128",,"Own","34","Airport (Sfo)",,"-122.39980549899997","37.626987034000024",,,"635","POINT (-122.399805499 37.626987034)","2026/02/27 12:48:44 AM","2026/02/27 09:50:00 AM","2026/03/06 10:20:52 AM"
"1137","Sunnyside Conservatory","236 Monterey Blvd","San Francisco","94131","6770057","Own","49","Recreation And Parks","1,536","-122.44082399499996","37.73186080000005","7",,"526","POINT (-122.440823995 37.7318608)","2016/09/12 09:00:00 AM","2026/02/27 09:50:00 AM","2026/03/06 10:20:52 AM"
"3417","UNITED AIRLINES STRUCTURES - 585","585 NORTH MCDONNELL RD","San Francisco","94128",,"Own","34","Airport (Sfo)",,"-122.39671556099995","37.61672581700003",,,"635","POINT (-122.396715561 37.616725817)","2026/02/27 12:31:22 AM","2026/02/27 09:50:00 AM","2026/03/06 10:20:52 AM"
"1446","Sanitary Sewer Pump Station","505 MISSION BAY BLVD NORTH","San Francisco","94158","8711005","Own","47","Public Utilities Commission",,"-122.38985122699995","37.77097078500003","6",,"963","POINT (-122.389851227 37.770970785)","2026/02/27 12:24:58 AM","2026/02/27 09:50:00 AM","2026/03/06 10:20:52 AM"
"306","Cabin #32","32560 Mather Rd","Groveland","95321","681600100","Own","49","Recreation And Parks",,"-119.85373773099997","37.880830367000044",,,"1,199","POINT (-119.853737731 37.880830367)","2016/09/12 09:00:00 AM","2026/02/27 09:50:00 AM","2026/03/06 10:20:52 AM"
"1213","Ortega Branch Library","3223 Ortega St","San Francisco","94122","2094005","Own","48","Public Library","9,300","-122.49810319699998","37.75122405800005","4",,"751","POINT (-122.498103197 37.751224058)","2017/03/24 06:39:16 PM","2026/02/27 09:50:00 AM","2026/03/06 10:20:52 AM"
"675","Fay House","2366 Leavenworth St","San Francisco","94133","0067014A","Own","49","Recreation And Parks","4,536","-122.41787340899998","37.80303625400006","3",,"617","POINT (-122.417873409 37.803036254)","2016/09/12 09:00:00 AM","2026/02/27 09:50:00 AM","2026/03/06 10:20:52 AM"
"718","Fire Station #37","798 Wisconsin St","San Francisco","94107","4097024","Own","38","Fire Department","6,950","-122.399243851","37.75741778200006","10",,"344","POINT (-122.399243851 37.757417782)","2016/09/12 09:00:00 AM","2026/02/27 09:50:00 AM","2026/03/06 10:20:52 AM"
"1269","Pier 17 - Shed Building","The Embarcadero","San Francisco","94111","9900070","Own","46","Port","117,001","-122.39817486599998","37.802159251000035","3",,"370","POINT (-122.398174866 37.802159251)","2025/10/21 05:28:55 PM","2026/02/27 09:50:00 AM","2026/03/06 10:20:52 AM"
"1799","Union Square Performance Spaces","225 Stockton St","San Francisco","94108","0308001","Own","49","Recreation And Parks",,"-122.40797902799994","37.78787976700005","3",,"125","POINT (-122.407979028 37.787879767)","2016/09/12 09:00:00 AM","2026/02/27 09:50:00 AM","2026/03/06 10:20:52 AM"
"504","Commodore Sloat Elementary","50 Darien Way","San Francisco","94127","3256002","Own","16","School District (Sfusd)","59,200","-122.47056913999995","37.731670343000076","7",,"484","POINT (-122.47056914 37.731670343)","2016/09/12 09:00:00 AM","2026/02/27 09:50:00 AM","2026/03/06 10:20:52 AM"
"1621","Southeast Health Center","2401 Keith St","San Francisco","94124","4849016","Own","72","Public Health","14,604","-122.39200110399997","37.72564580400007","10",,"367","POINT (-122.392001104 37.725645804)","2016/09/12 09:00:00 AM","2026/02/27 09:50:00 AM","2026/03/06 10:20:52 AM"
"1177","Murphy Windmill","2100 Martin Luther King Jr Dr","San Francisco","94117","1263011","Own","49","Recreation And Parks","2,640","-122.50868981499997","37.76497993100003","4",,"56","POINT (-122.508689815 37.764979931)","2019/02/08 10:38:30 PM","2026/02/27 09:50:00 AM","2026/03/06 10:20:52 AM"
"465","Chinatown Branch Library","1135 Powell St","San Francisco","94108","0191004","Own","48","Public Library","17,858","-122.41008249499998","37.79523887500005","3",,"210","POINT (-122.410082495 37.795238875)","2016/09/12 09:00:00 AM","2026/02/27 09:50:00 AM","2026/03/06 10:20:52 AM"
"1355","Public Defender's Office","555 7th St","San Francisco","94103","3779042","Own","63","Gsa - Real Estate Division","50,064","-122.40396865599996","37.77389542000003","6","Public Defender","805","POINT (-122.403968656 37.77389542)","2018/05/03 09:50:01 PM","2026/02/27 09:50:00 AM","2026/03/06 10:20:52 AM"
"3352","CARGO BUILDING - 606","606 NORTH MCDONNELL RD","San Francisco","94128",,"Own","34","Airport (Sfo)",,"-122.39806147499996","37.61925293200005",,,"635","POINT (-122.398061475 37.619252932)","2026/02/27 12:46:32 AM","2026/02/27 09:50:00 AM","2026/03/06 10:20:52 AM"
"1706","SWL 302 - Pompeis Grotto","340 Jefferson St","San Francisco","94133","9900070","Own","46","Port","4,140","-122.41805339999996","37.80809347300004","3",,"370","POINT (-122.4180534 37.808093473)","2025/10/21 05:28:55 PM","2026/02/27 09:50:00 AM","2026/03/06 10:20:52 AM"
"767","Garfield Elementary","420 Filbert St","San Francisco","94133","0087071","Own","16","School District (Sfusd)","33,800","-122.40653202299995","37.80193503700008","3",,"388","POINT (-122.406532023 37.801935037)","2016/09/12 09:00:00 AM","2026/02/27 09:50:00 AM","2026/03/06 10:20:52 AM"
"850","HARDING SPORTS CENTER*","99 Harding Rd","San Francisco","94132","7283004","Own","49","Recreation And Parks","1,000","-122.49944140499997","37.72550797700006","7",,"810","POINT (-122.499441405 37.725507977)","2016/09/12 09:00:00 AM","2026/02/27 09:50:00 AM","2026/03/06 10:20:52 AM"
"682","FILLMORE SUBSTATION","1825 Fillmore St","San Francisco","94115","0678031","Own","42","Municipal Transportation Agency","4,774","-122.43387676699996","37.78643576600007","5",,"827","POINT (-122.433876767 37.786435766)","2025/10/21 05:09:20 PM","2026/02/27 09:50:00 AM","2026/03/06 10:20:52 AM"
"1074","Mccoppin Square Clubhouse","2354 24th Ave","San Francisco","94116","2351001","Own","49","Recreation And Parks","2,000","-122.48075886699996","37.74353836200004","4",,"749","POINT (-122.480758867 37.743538362)","2016/09/12 09:00:00 AM","2026/02/27 09:50:00 AM","2026/03/06 10:20:52 AM"
"3194","SE MAINTENANCE TRAILERS -941","1700 Jerrold Ave","San Francisco","94124","5313002","Own","47","Public Utilities Commission",,"-122.39370330999998","37.74104971100007","10",,"792","POINT (-122.39370331 37.741049711)","2025/10/21 05:09:20 PM","2026/02/27 09:50:00 AM","2026/03/06 10:20:52 AM"
"852","Harvey Milk Civil Rights Academy","4235 19th St","San Francisco","94114","2697001","Own","16","School District (Sfusd)","30,560","-122.436455121","37.75897967700007","8",,"473","POINT (-122.436455121 37.758979677)","2016/09/12 09:00:00 AM","2026/02/27 09:50:00 AM","2026/03/06 10:20:52 AM"
"536","CORP. YARD MAIN OFFICE/SHOP*","501 Stanyan St","San Francisco","94117","1263011","Own","49","Recreation And Parks","1,275","-122.46036739199997","37.76870077900003","7",,"56","POINT (-122.460367392 37.768700779)","2019/02/11 10:12:21 PM","2026/02/27 09:50:00 AM","2026/03/06 10:20:52 AM"
"1227","Panhandle Bathroom & Staff Bldg","Oak St & Ashbury St","San Francisco","94117","1263011","Own","49","Recreation And Parks",,"-122.44144448199995","37.77311564200005","5",,"56","POINT (-122.441444482 37.773115642)","2019/02/09 12:11:39 AM","2026/02/27 09:50:00 AM","2026/03/06 10:20:52 AM"
"924","Japanese Pagoda","1610 Geary Blvd","San Francisco","94115","0700022","Own","49","Recreation And Parks","289","-122.42984262099998","37.78511398200004","5",,"118","POINT (-122.429842621 37.785113982)","2016/09/12 09:00:00 AM","2026/02/27 09:50:00 AM","2026/03/06 10:20:52 AM"
"3258","833 Bryant St - Parking","833 Bryant St","San Francisco","94103",,"Lease","9","Non-City",,"-122.40340165499998","37.775111767000055","6","Police Department",,"POINT (-122.403401655 37.775111767)","2017/12/28 10:50:41 PM","2026/02/27 09:50:00 AM","2026/03/06 10:20:52 AM"
"3136","ZOO - HAY BARNS*","1 Zoo Rd","San Francisco","94132","7281002","Own","49","Recreation And Parks",,"-122.50296846899994","37.731148285000074","7",,"489","POINT (-122.502968469 37.731148285)","2016/09/12 09:00:00 AM","2026/02/27 09:50:00 AM","2026/03/06 10:20:52 AM"
"3500","Westbrook Garage","227 7th St","San Francisco","94103","3731240","Own","103","Mayor",,"-122.40871345899996","37.77767673200003","6",,"1,261","POINT (-122.408713459 37.777676732)","2020/11/17 11:25:36 PM","2026/02/27 09:50:00 AM","2026/03/06 10:20:52 AM"
"1996","Pier 70 - SWL 349 - Beth Street Washroom & Locker, Bldg. #24","420 22nd St","San Francisco","94107","4111003","Own","46","Port","3,432","-122.38300091999997","37.76039202100003","10",,"733","POINT (-122.38300092 37.760392021)","2018/01/18 10:07:25 PM","2026/02/27 09:50:00 AM","2026/03/06 10:20:52 AM"
"3263","6th St and Berry St - Parking","6th St & Berry St","San Francisco","94107","3794026","Own","63","Gsa - Real Estate Division",,"-122.39823290099997","37.772178146000044","6",,"735","POINT (-122.398232901 37.772178146)","2026/02/27 12:48:23 AM","2026/02/27 09:50:00 AM","2026/03/06 10:20:52 AM"
"3362","JASON G. YUEN ARCHITECTURE & ENGINEERING BUILDING - 676","676 NORTH MCDONNELL ROAD","San Francisco","94128",,"Own","34","Airport (Sfo)",,"-122.39934548499997","37.622489646000076",,,"635","POINT (-122.399345485 37.622489646)","2025/10/21 05:09:20 PM","2026/02/27 09:50:00 AM","2026/03/06 10:20:52 AM"
"1716","SWL 303 - Alioto Fish Co,","360 Jefferson St","San Francisco","94133","9900070","Own","46","Port","7,363","-122.41830205099996","37.808043670000075","3",,"370","POINT (-122.418302051 37.80804367)","2025/10/21 05:28:55 PM","2026/02/27 09:50:00 AM","2026/03/06 10:20:52 AM"
"909","J.M. Woods Div-Operators","1001 22nd St","San Francisco","94107","4169002","Own","42","Municipal Transportation Agency",,"-122.39163581399998","37.757589351000036","10",,"820","POINT (-122.391635814 37.757589351)","2016/09/12 09:00:00 AM","2026/02/27 09:50:00 AM","2026/03/06 10:20:52 AM"
"3466","350 Rhode Island St","350 Rhode Island St","San Francisco","94103",,"Lease","9","Non-City",,"-122.40288848499995","37.765613390000055","10","District Attorney",,"POINT (-122.402888485 37.76561339)","2018/10/30 09:37:47 PM","2026/02/27 09:50:00 AM","2026/03/06 10:20:52 AM"
"134","Arboretum North Bathroom","1199 09th Ave","San Francisco","94117","1263011","Own","49","Recreation And Parks",,"-122.47087744199996","37.76889158200004","7",,"56","POINT (-122.470877442 37.768891582)","2017/03/31 09:41:06 PM","2026/02/27 09:50:00 AM","2026/03/06 10:20:52 AM"
"1330","Potrero Heights Pump Station","901 Carolina St","San Francisco","94107","4161001","Own","47","Public Utilities Commission",,"-122.39938831399996","37.756907599000044","10",,"379","POINT (-122.399388314 37.756907599)","2016/09/12 09:00:00 AM","2026/02/27 09:50:00 AM","2026/03/06 10:20:52 AM"
"589","Double Dutch Head House","100 Martin Luther King Dr","San Francisco","94117","1263011","Own","49","Recreation And Parks",,"-122.50917300299994","37.77044896900003","1",,"56","POINT (-122.509173003 37.770448969)","2019/02/09 12:40:44 AM","2026/02/27 09:50:00 AM","2026/03/06 10:20:52 AM"
"1890","Zaida T Rodriguez Early Education","421 Bartlett St","San Francisco","94110","6529019","Own","16","School District (Sfusd)","1,800","-122.41917117999998","37.75014826800003","9",,"596","POINT (-122.41917118 37.750148268)","2016/12/21 08:50:36 PM","2026/02/27 09:50:00 AM","2026/03/06 10:20:52 AM"
"278","Cabin # 121","32560 Mather Rd","Groveland","95321","681600100","Own","49","Recreation And Parks",,"-119.85373773099997","37.880830367000044",,,"1,199","POINT (-119.853737731 37.880830367)","2016/09/12 09:00:00 AM","2026/02/27 09:50:00 AM","2026/03/06 10:20:52 AM"
"316","Cabin #42","32560 Mather Rd","Groveland","95321","681600100","Own","49","Recreation And Parks",,"-119.85373773099997","37.880830367000044",,,"1,199","POINT (-119.853737731 37.880830367)","2016/09/12 09:00:00 AM","2026/02/27 09:50:00 AM","2026/03/06 10:20:52 AM"
"311","Cabin #37","32560 Mather Rd","Groveland","95321","681600100","Own","49","Recreation And Parks",,"-119.85373773099997","37.880830367000044",,,"1,199","POINT (-119.853737731 37.880830367)","2016/09/12 09:00:00 AM","2026/02/27 09:50:00 AM","2026/03/06 10:20:52 AM"
"1814","Vehicle & Materials Storage","100 Martin Luther King Dr","San Francisco","94117","1263011","Own","49","Recreation And Parks","1,200","-122.46214438899995","37.76860409000005","7",,"56","POINT (-122.462144389 37.76860409)","2019/02/11 07:19:07 PM","2026/02/27 09:50:00 AM","2026/03/06 10:20:52 AM"
"294","Cabin #20","32560 Mather Rd","Groveland","95321","681600100","Own","49","Recreation And Parks",,"-119.85373773099997","37.880830367000044",,,"1,199","POINT (-119.853737731 37.880830367)","2016/09/12 09:00:00 AM","2026/02/27 09:50:00 AM","2026/03/06 10:20:52 AM"
"3131","ZOO - CHILDRENS ZOO - BARN","1 Zoo Rd","San Francisco","94132","7281002","Own","49","Recreation And Parks",,"-122.50337248599999","37.733714951000024","7",,"489","POINT (-122.503372486 37.733714951)","2016/09/12 09:00:00 AM","2026/02/27 09:50:00 AM","2026/03/06 10:20:52 AM"
"11","Bayview Opera House","4705 03rd St","San Francisco","94124","5311036","Own","35","Arts Commission","14,000","-122.39020518399997","37.735157075000075","10",,"212","POINT (-122.390205184 37.735157075)","2016/09/12 09:00:00 AM","2026/02/27 09:50:00 AM","2026/03/06 10:20:52 AM"
"3018","Swimming Pool","32560 Mather Rd","Groveland","95321","681600100","Own","49","Recreation And Parks",,"-119.85412106099994","37.87901196900003",,,"1,199","POINT (-119.854121061 37.879011969)","2016/09/12 09:00:00 AM","2026/02/27 09:50:00 AM","2026/03/06 10:20:52 AM"
"1879","Yerba Buena Center For The Arts","701 Mission St","San Francisco","94103","3723115","Own","63","Gsa - Real Estate Division","103,460","-122.40206374099995","37.78560381200003","6",,"958","POINT (-122.402063741 37.785603812)","2021/03/19 01:16:12 AM","2026/02/27 09:50:00 AM","2026/03/06 10:20:52 AM"
"699","Fire Station #17","1295 Shafter Ave","San Francisco","94124","4792018","Own","38","Fire Department","12,100","-122.38506673499995","37.72752662100004","10",,"310","POINT (-122.385066735 37.727526621)","2016/09/12 09:00:00 AM","2026/02/27 09:50:00 AM","2026/03/06 10:20:52 AM"
"1916","Pier 39 - Retail Shops","2 Beach St","San Francisco","94133","9900070","Own","46","Port","261,972","-122.41035284899999","37.81000729800007","3",,"370","POINT (-122.410352849 37.810007298)","2025/10/21 05:28:55 PM","2026/02/27 09:50:00 AM","2026/03/06 10:20:52 AM"
"1829","W Sunset 2 Fieldhouse/Bleachers","3223 Ortega St","San Francisco","94116","2094004","Own","49","Recreation And Parks",,"-122.49836824799996","37.74941539900004","4",,"673","POINT (-122.498368248 37.749415399)","2016/09/12 09:00:00 AM","2026/02/27 09:50:00 AM","2026/03/06 10:20:52 AM"
"3273","Cohen Place","511 Ellis St","San Francisco","94109","0334044","Own","77","Public Works",,"-122.41473204799996","37.78435200200005","5",,"788","POINT (-122.414732048 37.784352002)","2016/11/14 07:30:50 PM","2026/02/27 09:50:00 AM","2026/03/06 10:20:52 AM"
"1036","LRV Station-Montgomery","595 Market St","San Francisco","94104",,"Own","42","Municipal Transportation Agency","24,420","-122.40156830599994","37.78912352900005","6",,"10,000","POINT (-122.401568306 37.789123529)","2016/09/12 09:00:00 AM","2026/02/27 09:50:00 AM","2026/03/06 10:20:52 AM"
"3279","711 Van Ness Ave Offices","711 Van Ness Ave","San Francisco","94102",,"Lease","9","Non-City",,"-122.42099070499995","37.78212763600004","2","Emergency Management",,"POINT (-122.420990705 37.782127636)","2017/12/21 05:03:11 PM","2026/02/27 09:50:00 AM","2026/03/06 10:20:52 AM"
"3110","ZSFGH - Building 4","1001 Potrero Ave","San Francisco","94110","4154001","Own","72","Public Health",,"-122.40508865299995","37.75666504800006","10",,"614","POINT (-122.405088653 37.756665048)","2017/08/15 09:07:48 PM","2026/02/27 09:50:00 AM","2026/03/06 10:20:52 AM"
"1332","Potrero Hill Rec Center","801 Arkansas St","San Francisco","94107","4163001","Own","49","Recreation And Parks","23,460","-122.39744311699997","37.75616262500006","10",,"45","POINT (-122.397443117 37.756162625)","2016/09/12 09:00:00 AM","2026/02/27 09:50:00 AM","2026/03/06 10:20:52 AM"
"379","Camp Mather Nurse's Cabin","32560 Mather Rd","Groveland","95321","681600100","Own","49","Recreation And Parks",,"-119.85717913499997","37.88203507600008",,,"1,199","POINT (-119.857179135 37.882035076)","2016/09/12 09:00:00 AM","2026/02/27 09:50:00 AM","2026/03/06 10:20:52 AM"
"1185","Noe Valley Courts Bathrooms","780 Douglass St","San Francisco","94114","2829001","Own","49","Recreation And Parks","390","-122.43920196699997","37.751480566000055","8",,"66","POINT (-122.439201967 37.751480566)","2016/09/12 09:00:00 AM","2026/02/27 09:50:00 AM","2026/03/06 10:20:52 AM"
"288","Cabin #15","32560 Mather Rd","Groveland","95321","681600100","Own","49","Recreation And Parks",,"-119.85373773099997","37.880830367000044",,,"1,199","POINT (-119.853737731 37.880830367)","2016/09/12 09:00:00 AM","2026/02/27 09:50:00 AM","2026/03/06 10:20:52 AM"
"1886","Yerba Buena Gardens - Mo's Grill","772 Folsom St","San Francisco","94103","3734091","Own","63","Gsa - Real Estate Division",,"-122.40128243699996","37.782989703000055","6",,"451","POINT (-122.401282437 37.782989703)","2021/03/19 03:26:43 AM","2026/02/27 09:50:00 AM","2026/03/06 10:20:52 AM"
"44","3801 3rd St","3801 03rd St","San Francisco","94124",,"Lease","9","Non-City",,"-122.38766774099997","37.74120159200004","10","Human Services Agency: Public Health: Public Utilities Commission",,"POINT (-122.387667741 37.741201592)","2019/09/11 10:27:49 PM","2026/02/27 09:50:00 AM","2026/03/06 10:20:52 AM"
"1312","Police Stables Shed","1475 John F Kennedy Dr","San Francisco","94117","1263011","Own","49","Recreation And Parks","400","-122.495377083","37.76893631200005","4",,"56","POINT (-122.495377083 37.768936312)","2019/02/11 07:29:58 PM","2026/02/27 09:50:00 AM","2026/03/06 10:20:52 AM"
"3368","ASIG - 1070","1070 NORTH ACCESS RD","San Francisco","94128",,"Own","34","Airport (Sfo)",,"-122.37565432499997","37.62414380700005",,,"635","POINT (-122.375654325 37.624143807)","2026/02/26 11:19:15 PM","2026/02/27 09:50:00 AM","2026/03/06 10:20:52 AM"
"1567","SFUSD -- Administration - Van Ness","135 Van Ness Ave","San Francisco","94102","0815001","Own","16","School District (Sfusd)",,"-122.419932588","37.776802891000045","5",,"417","POINT (-122.419932588 37.776802891)","2016/09/12 09:00:00 AM","2026/02/27 09:50:00 AM","2026/03/06 10:20:52 AM"
"3290","Bowley St/Lincoln Blvd SFMTA Operator Restroom","Bowley St/Lincold Blvd","San Francisco","94129",,"Own","42","Municipal Transportation Agency","75","-122.48132737199995","37.792030717000046","2",,"0","POINT (-122.481327372 37.792030717)","2025/10/21 05:36:18 PM","2026/02/27 09:50:00 AM","2026/03/06 10:20:52 AM"
"293","Cabin #2","32560 Mather Rd","Groveland","95321","681600100","Own","49","Recreation And Parks",,"-119.85373773099997","37.880830367000044",,,"1,199","POINT (-119.853737731 37.880830367)","2016/09/12 09:00:00 AM","2026/02/27 09:50:00 AM","2026/03/06 10:20:52 AM"
"426","CCSF - Civic Center","1170 MARKET ST","San Francisco","94103","0351051","Lease","9","Non-City",,"-122.41420196399997","37.779439668000066","5","City College","1,124","POINT (-122.414201964 37.779439668)","2017/12/28 11:38:44 PM","2026/02/27 09:50:00 AM","2026/03/06 10:20:52 AM"
"631","Elk Glen Pump Station","Martin Luther King  Jr Dr & 25th Ave","San Francisco","94117","1263011","Own","49","Recreation And Parks","3,180","-122.48246276399999","37.76768243200007","4",,"56","POINT (-122.482462764 37.767682432)","2019/02/08 11:41:10 PM","2026/02/27 09:50:00 AM","2026/03/06 10:20:52 AM"
"1892","Zoo Wet Weather Lift Station","1 Zoo Rd","San Francisco","94132","7281002","Own","49","Recreation And Parks",,"-122.50323956399995","37.732909482000025","7",,"489","POINT (-122.503239564 37.732909482)","2016/09/12 09:00:00 AM","2026/02/27 09:50:00 AM","2026/03/06 10:20:52 AM"
"3446","MUSEUM OFFICES - 670","670 WEST FIELD ROAD","San Francisco","94128",,"Own","34","Airport (Sfo)",,"-122.39802351099996","37.62265250000007",,,"635","POINT (-122.398023511 37.6226525)","2025/10/21 05:09:20 PM","2026/02/27 09:50:00 AM","2026/03/06 10:20:52 AM"
"3016","Rossi maintenance facility 2","600 Arguello Blvd","San Francisco","94118","1141027","Own","49","Recreation And Parks","672","-122.45711564099997","37.779394585000034","1",,"95","POINT (-122.457115641 37.779394585)","2019/02/14 04:27:48 PM","2026/02/27 09:50:00 AM","2026/03/06 10:20:52 AM"
"3467","1563 Mission St Clinic","1563 Mission St","San Francisco","94103",,"Lease","9","Non-City",,"-122.41818808699998","37.773091055000066","6","Public Health",,"POINT (-122.418188087 37.773091055)","2018/11/01 04:51:00 PM","2026/02/27 09:50:00 AM","2026/03/06 10:20:52 AM"
"778","General Manager's Cabin","32560 Mather Rd","Groveland","95321","681600100","Own","49","Recreation And Parks",,"-119.85278212499998","37.881445142000075",,,"1,199","POINT (-119.852782125 37.881445142)","2016/09/12 09:00:00 AM","2026/02/27 09:50:00 AM","2026/03/06 10:20:52 AM"
"1920","Pier 40 1/2 - Java House","89 King St","San Francisco","94107","9900070","Own","46","Port","1,104","-122.38761163599997","37.77993551700007","6",,"370","POINT (-122.387611636 37.779935517)","2025/10/21 05:28:55 PM","2026/02/27 09:50:00 AM","2026/03/06 10:20:52 AM"
"3461","165-167 11th St","165 11th St","San Francisco","94103","3510035","Own","63","Gsa - Real Estate Division",,"-122.41605327899998","37.77370097100004","6",,"1,234","POINT (-122.416053279 37.773700971)","2018/10/24 08:24:54 PM","2026/02/27 09:50:00 AM","2026/03/06 10:20:52 AM"
"831","Guadalupe Elementary","859 Prague St","San Francisco","94112","6440001","Own","16","School District (Sfusd)","40,777","-122.43449972499997","37.710134562000064","11",,"595","POINT (-122.434499725 37.710134562)","2016/09/12 09:00:00 AM","2026/02/27 09:50:00 AM","2026/03/06 10:20:52 AM"
"326","Cabin #61","32560 Mather Rd","Groveland","95321","681600100","Own","49","Recreation And Parks",,"-119.85373773099997","37.880830367000044",,,"1,199","POINT (-119.853737731 37.880830367)","2016/09/12 09:00:00 AM","2026/02/27 09:50:00 AM","2026/03/06 10:20:52 AM"
"1471","Sect 6 Gardener Cpd@Bercut","Bercut Access Rd & Chain of Lakes Dr","San Francisco","94117","1263011","Own","49","Recreation And Parks",,"-122.50281627899994","37.766682107000065","4",,"56","POINT (-122.502816279 37.766682107)","2019/01/18 11:33:16 PM","2026/02/27 09:50:00 AM","2026/03/06 10:20:52 AM"
"3396","MLTP - 920","920 CLEARWATER DRIVE","San Francisco","94128",,"Own","34","Airport (Sfo)",,"-122.38481883799994","37.63663365200006",,,"635","POINT (-122.384818838 37.636633652)","2025/10/21 05:09:20 PM","2026/02/27 09:50:00 AM","2026/03/06 10:20:52 AM"
"1998","Pier 70 - SWL 349 - Beth Street Washroom & Locker, Bldg. #29","420 22nd St","San Francisco","94107","4111003","Own","46","Port","3,696","-122.38300091999997","37.76039202100003","10",,"733","POINT (-122.38300092 37.760392021)","2018/01/18 10:07:24 PM","2026/02/27 09:50:00 AM","2026/03/06 10:20:52 AM"
"55","3RD ST/FITZGERALD ST SFMTA Operator Bathroom","3rd St & Fitzgerald Ave","San Francisco","94124",,"Own","42","Municipal Transportation Agency","105","-122.39520357799995","37.72297866300005","10",,"0","POINT (-122.395203578 37.722978663)","2025/10/21 05:09:20 PM","2026/02/27 09:50:00 AM","2026/03/06 10:20:52 AM"
"1551","SFPD Pistol Range","700 John Muir Dr","San Francisco","94132","7283004","Own","45","Police Department","10,000","-122.49967781599997","37.720277327000076","7",,"809","POINT (-122.499677816 37.720277327)","2016/09/12 09:00:00 AM","2026/02/27 09:50:00 AM","2026/03/06 10:20:52 AM"
"1693","Sustainable Streets Paint Shop/Truck Parking","1528 YOSEMITE AVE","San Francisco","94124","4830016","Lease","9","Non-City",,"-122.39025449299999","37.726339489000054","10","Municipal Transportation Agency","1,176","POINT (-122.390254493 37.726339489)","2026/02/26 11:33:03 PM","2026/02/27 09:50:00 AM","2026/03/06 10:20:52 AM"
"1658","Stow Lake Restrooms","50 Stow Lake Dr","San Francisco","94117","1263011","Own","49","Recreation And Parks","721","-122.47689159199996","37.77100685100004","7",,"56","POINT (-122.476891592 37.771006851)","2019/02/09 12:14:43 AM","2026/02/27 09:50:00 AM","2026/03/06 10:20:52 AM"
"3267","Potrero Hill Community Garden","20th St & San Bruno Ave","San Francisco","94107","4076011","Own","49","Recreation And Parks",,"-122.40529972699994","37.75978410400006","10",,"613","POINT (-122.405299727 37.759784104)","2026/02/26 11:54:37 PM","2026/02/27 09:50:00 AM","2026/03/06 10:20:52 AM"
"3086","Pier 48 - Shed B","Pier 48","San Francisco","94158","9900070","Own","46","Port",,"-122.38698750799995","37.775326595000024","6","Elections","370","POINT (-122.386987508 37.775326595)","2025/10/21 05:28:55 PM","2026/02/27 09:50:00 AM","2026/03/06 10:20:52 AM"
"1649","Stern Grove - stage deck","2899 19TH AVE","San Francisco","94132","2488001","Own","49","Recreation And Parks","3,680","-122.47926297899994","37.73614553200008","4",,"74","POINT (-122.479262979 37.736145532)","2016/09/12 09:00:00 AM","2026/02/27 09:50:00 AM","2026/03/06 10:20:52 AM"
"3040","AUTOSHOP - LOG CABIN","500 Log Cabin Ranch Rd","La Honda","94020","083300010","Own","21","Juvenile Probation",,"-122.25645900699999","37.30479052600003",,,"921","POINT (-122.256459007 37.304790526)","2025/07/09 08:55:39 PM","2026/02/27 09:50:00 AM","2026/03/06 10:20:52 AM"
"1713","SWL 302 Franks Fisherman Supply","366 Jefferson St","San Francisco","94133","9900070","Own","46","Port","8,183","-122.41852018499998","37.80800351000005","3",,"370","POINT (-122.418520185 37.80800351)","2025/10/21 05:28:55 PM","2026/02/27 09:50:00 AM","2026/03/06 10:20:52 AM"
"3102","ZSFGH - Building 1","1001 Potrero Ave","San Francisco","94110","4154001","Own","72","Public Health",,"-122.40575955299994","37.75661029300005","10",,"614","POINT (-122.405759553 37.756610293)","2017/08/15 09:21:10 PM","2026/02/27 09:50:00 AM","2026/03/06 10:20:52 AM"
"1637","Stanford Chlorine Plant","Agua Way  & Teresita Blvd","San Francisco","94127","2946A001","Own","47","Public Utilities Commission",,"-122.45115906599995","37.741760190000036","7",,"380","POINT (-122.451159066 37.74176019)","2019/02/15 11:53:12 PM","2026/02/27 09:50:00 AM","2026/03/06 10:20:52 AM"
"3455","GTU CAR WASH - 947A","947 NORTH FIELD ROAD","San Francisco","94128",,"Own","34","Airport (Sfo)",,"-122.39126789799997","37.638291767000055",,,"635","POINT (-122.391267898 37.638291767)","2025/10/21 05:09:20 PM","2026/02/27 09:50:00 AM","2026/03/06 10:20:52 AM"
"3367","WEST FIELD CARGO BUILDING - 648","648 WEST FIELD ROAD","San Francisco","94128",,"Own","34","Airport (Sfo)",,"-122.39464477099995","37.62418478400008",,,"635","POINT (-122.394644771 37.624184784)","2025/10/21 05:09:20 PM","2026/02/27 09:50:00 AM","2026/03/06 10:20:52 AM"
"3093","Pier 80 - Service Building","Pier 80","San Francisco","94124","4304002","Own","46","Port",,"-122.38157575699995","37.75048091600007","10",,"409","POINT (-122.381575757 37.750480916)","2018/01/18 10:07:24 PM","2026/02/27 09:50:00 AM","2026/03/06 10:20:52 AM"
"1562","3045 Santiago Admin Building","3045 Santiago St","San Francisco","94116","2370074","Own","16","School District (Sfusd)",,"-122.49991369899999","37.74363505000008","4",,"465","POINT (-122.499913699 37.74363505)","2017/05/30 07:16:11 PM","2026/02/27 09:50:00 AM","2026/03/06 10:20:52 AM"
"723","Fire Station #40","2155 18th Ave","San Francisco","94116","2199003","Own","38","Fire Department","7,350","-122.47526939799997","37.74761093800004","7",,"318","POINT (-122.475269398 37.747610938)","2016/09/12 09:00:00 AM","2026/02/27 09:50:00 AM","2026/03/06 10:20:52 AM"
"1631","St Mary's PG Restrooms","95 Justin Dr","San Francisco","94110","5801002","Own","49","Recreation And Parks",,"-122.42164757499995","37.73340144300005","9",,"26","POINT (-122.421647575 37.733401443)","2016/09/12 09:00:00 AM","2026/02/27 09:50:00 AM","2026/03/06 10:20:52 AM"
"1408","Richmond/Sunset Treatment Plant","Lincoln Way & Martin Luther King Jr Dr","San Francisco","94117","1263011","Own","49","Recreation And Parks",,"-122.50050060699999","37.76464645500005","4",,"56","POINT (-122.500500607 37.764646455)","2019/02/09 12:39:21 AM","2026/02/27 09:50:00 AM","2026/03/06 10:20:52 AM"
"3501","Westbrook Health Clinic","229 7th St","San Francisco","94103","3731241","Own","103","Mayor",,"-122.40857657999999","37.77756440500008","6",,"1,284","POINT (-122.40857658 37.777564405)","2020/11/17 11:29:44 PM","2026/02/27 09:50:00 AM","2026/03/06 10:20:52 AM"
"1176","Old MUNI-Fillmore substation","1150 Fillmore St","San Francisco","94115","0756015","Own","63","Gsa - Real Estate Division","4,774","-122.43181593699995","37.78037678700008","5",,"954","POINT (-122.431815937 37.780376787)","2019/07/05 07:49:25 PM","2026/02/27 09:50:00 AM","2026/03/06 10:20:52 AM"
"815","Golden Gate Valley Branch Library","1801 Green St","San Francisco","94123","0554001","Own","48","Public Library","7,432","-122.429023471","37.796788830000025","2",,"207","POINT (-122.429023471 37.79678883)","2016/09/12 09:00:00 AM","2026/02/27 09:50:00 AM","2026/03/06 10:20:52 AM"
"3269","Palo Alto/Marview Comm Facility","Palo Alto Ave and Marview Way","San Francisco","94114","2719C023","Own","38","Fire Department",,"-122.44977236299997","37.756661638000026","7",,"52","POINT (-122.449772363 37.756661638)","2019/09/11 10:25:06 PM","2026/02/27 09:50:00 AM","2026/03/06 10:20:52 AM"
"1078","McLaren Lodge Annex","501 Stanyan St","San Francisco","94117","1263011","Own","49","Recreation And Parks","12,288","-122.45494985199997","37.77230508700006","1",,"56","POINT (-122.454949852 37.772305087)","2016/09/12 09:00:00 AM","2026/02/27 09:50:00 AM","2026/03/06 10:20:52 AM"
"937","Jefferson Elementary","1725 Irving St","San Francisco","94122","1773001","Own","16","School District (Sfusd)","42,434","-122.47681453899997","37.76329393000003","7",,"896","POINT (-122.476814539 37.76329393)","2016/09/12 09:00:00 AM","2026/02/27 09:50:00 AM","2026/03/06 10:20:52 AM"
"3304","Wholesale Produce Market - 2095 Jerrold","2095 Jerrold Ave","San Francisco","94124","5281020","Own","63","Gsa - Real Estate Division","13,179","-122.39878231699998","37.74372401900007","10",,"165","POINT (-122.398782317 37.743724019)","2017/05/04 04:38:57 PM","2026/02/27 09:50:00 AM","2026/03/06 10:20:52 AM"
"644","Equestrian Ctr. Shed 2","1451 John F Kennedy Dr","San Francisco","94117","1263011","Own","49","Recreation And Parks","1,200","-122.49429278499997","37.769094592000044","4",,"56","POINT (-122.494292785 37.769094592)","2019/02/11 07:10:07 PM","2026/02/27 09:50:00 AM","2026/03/06 10:20:52 AM"
"929","Japanese Tea Garden Giftshop","75 Hagiwara Tea Garden Dr","San Francisco","94117","1263011","Own","49","Recreation And Parks","1,690","-122.46968514299999","37.77001860300004","7",,"56","POINT (-122.469685143 37.770018603)","2016/09/12 09:00:00 AM","2026/02/27 09:50:00 AM","2026/03/06 10:20:52 AM"
"1326","Potrero Branch Library","1616 20th St","San Francisco","94107","4068009A","Own","48","Public Library","6,410","-122.39766410099998","37.760135940000055","10",,"201","POINT (-122.397664101 37.76013594)","2016/09/12 09:00:00 AM","2026/02/27 09:50:00 AM","2026/03/06 10:20:52 AM"
"1279","Pier 22 1/2 - Maintenance / Recreation","The Embarcadero","San Francisco","94105","9900022H","Own","46","Port","1,974","-122.38824470499998","37.79040986100006","6",,"369","POINT (-122.388244705 37.790409861)","2018/01/18 10:07:24 PM","2026/02/27 09:50:00 AM","2026/03/06 10:20:52 AM"
"1258","PHELAN LOOP   SFMTA Operator Bathroom","7 FRIDA KAHLO WAY","San Francisco","94112","3180001","Own","42","Municipal Transportation Agency","75","-122.45252499299994","37.72357825000006","7",,"903","POINT (-122.452524993 37.72357825)","2025/10/21 05:09:20 PM","2026/02/27 09:50:00 AM","2026/03/06 10:20:52 AM"
"585","Dianne Feinstein Elementary","2550 25th Ave","San Francisco","94116","2425008","Own","16","School District (Sfusd)","62,087","-122.48136639899997","37.739685845000054","4",,"469","POINT (-122.481366399 37.739685845)","2016/09/12 09:00:00 AM","2026/02/27 09:50:00 AM","2026/03/06 10:20:52 AM"
"3022","Urban Forestry Office Trailer 2","2323 Cesar Chavez St","San Francisco","94124","4341001","Own","77","Public Works","1,224","-122.40039943799997","37.749048585000025","10",,"182","POINT (-122.400399438 37.749048585)","2016/09/12 09:00:00 AM","2026/02/27 09:50:00 AM","2026/03/06 10:20:52 AM"
"1295","Pier 96 - Maintenance Building","1000 Amador St","San Francisco","94124","4502A002","Own","46","Port","25,320","-122.37779736899995","37.74383117200006","10",,"783","POINT (-122.377797369 37.743831172)","2018/01/18 10:07:25 PM","2026/02/27 09:50:00 AM","2026/03/06 10:20:52 AM"
"3182","SE PRE-TREATMENT BLDG 011","1700 Jerrold Ave","San Francisco","94124","5313002","Own","47","Public Utilities Commission",,"-122.39126084699996","37.741546209000035","10",,"792","POINT (-122.391260847 37.741546209)","2025/10/21 05:09:20 PM","2026/02/27 09:50:00 AM","2026/03/06 10:20:52 AM"
"1910","Pier 33 1/2 - Bulkhead Building","1398 The Embarcadero","San Francisco","94133","9900070","Own","46","Port","16,452","-122.40554505799997","37.806904538000026","3",,"370","POINT (-122.405545058 37.806904538)","2025/10/21 05:28:55 PM","2026/02/27 09:50:00 AM","2026/03/06 10:20:52 AM"
"3449","AIR OPS - 1056","1056 NORTH ACCESS RD","San Francisco","94128",,"Own","34","Airport (Sfo)",,"-122.38051960799999","37.62908089700005",,,"635","POINT (-122.380519608 37.629080897)","2026/02/26 11:18:42 PM","2026/02/27 09:50:00 AM","2026/03/06 10:20:52 AM"
"1734","SWL 352 - Backlands Redevelopment","Cargo Way","San Francisco","94124","4502A002","Own","46","Port","2,120,275","-122.37779736899995","37.74383117200006","10",,"783","POINT (-122.377797369 37.743831172)","2018/01/18 10:07:26 PM","2026/02/27 09:50:00 AM","2026/03/06 10:20:52 AM"
"3031","Yacht Harbor Degaussing Station","3950 Scott St","San Francisco","94123","0900003","Own","49","Recreation And Parks",,"-122.44565731699998","37.80700236100006","2",,"102","POINT (-122.445657317 37.807002361)","2016/09/12 09:00:00 AM","2026/02/27 09:50:00 AM","2026/03/06 10:20:52 AM"
"805","Gilman Bathrooms","993 Gilman Ave","San Francisco","94124","4945006","Own","49","Recreation And Parks","270","-122.38833113999999","37.716828649000036","10",,"23","POINT (-122.38833114 37.716828649)","2016/09/12 09:00:00 AM","2026/02/27 09:50:00 AM","2026/03/06 10:20:52 AM"
"3108","ZSFGH - Building 20","1001 Potrero Ave","San Francisco","94110","4154001","Own","72","Public Health",,"-122.40584438099995","37.75599377800006","10",,"614","POINT (-122.405844381 37.755993778)","2017/08/15 08:41:40 PM","2026/02/27 09:50:00 AM","2026/03/06 10:20:52 AM"
"893","Ida B Wells High","1099 Hayes St","San Francisco","94117","0823011","Own","16","School District (Sfusd)","34,300","-122.43403687999995","37.77498638600008","5",,"418","POINT (-122.43403688 37.774986386)","2016/09/12 09:00:00 AM","2026/02/27 09:50:00 AM","2026/03/06 10:20:52 AM"
"3341","1755 Egbert Storage Yard","1755 Egbert Ave","San Francisco","94124",,"Lease","9","Non-City",,"-122.39699916699999","37.726175083000044","10",,,"POINT (-122.396999167 37.726175083)","2018/03/14 10:40:43 PM","2026/02/27 09:50:00 AM","2026/03/06 10:20:52 AM"
"2041","Kezar Fieldhouse S","755 Stanyan St","San Francisco","94117","1263011","Own","49","Recreation And Parks",,"-122.45601493499998","37.76624106100007","5",,"56","POINT (-122.456014935 37.766241061)","2019/02/08 11:59:40 PM","2026/02/27 09:50:00 AM","2026/03/06 10:20:52 AM"
"1250","Patricias Green Gardeners Shed","450 Octavia St","San Francisco","94102","0817033","Own","49","Recreation And Parks","52","-122.42444253299999","37.77591066400004","5",,"533","POINT (-122.424442533 37.775910664)","2016/09/12 09:00:00 AM","2026/02/27 09:50:00 AM","2026/03/06 10:20:52 AM"
"1644","Stationary Engineers & Electric Rm","100 Martin Luther King Dr","San Francisco","94117","1263011","Own","49","Recreation And Parks",,"-122.46261616199996","37.76885049600003","7",,"56","POINT (-122.462616162 37.768850496)","2019/02/11 07:19:07 PM","2026/02/27 09:50:00 AM","2026/03/06 10:20:52 AM"
"380","Camp Mather Office","35250 Mather Rd","Groveland","95321","681600100","Own","49","Recreation And Parks",,"-119.85569019599995","37.88270314400006",,,"1,199","POINT (-119.855690196 37.882703144)","2018/03/27 07:24:45 PM","2026/02/27 09:50:00 AM","2026/03/06 10:20:52 AM"
"921","Japan Center Parking Garage","1610 Geary Blvd","San Francisco","94115","0700038","Own","42","Municipal Transportation Agency","237,566","-122.43038641999999","37.784936722000054","5",,"743","POINT (-122.43038642 37.784936722)","2017/03/09 11:14:55 PM","2026/02/27 09:50:00 AM","2026/03/06 10:20:52 AM"
"200","Flynn Pumping Station","1595 Davidson Ave","San Francisco","94124","5313002","Own","47","Public Utilities Commission",,"-122.39153257999999","37.74533258200006","10",,"792","POINT (-122.39153258 37.745332582)","2016/09/12 09:00:00 AM","2026/02/27 09:50:00 AM","2026/03/06 10:20:52 AM"
"1883","Yerba Buena Gardens - Children's Garden","750 Folsom St","San Francisco","94103","3734091","Own","63","Gsa - Real Estate Division",,"-122.40126668799996","37.78319389400008","6",,"451","POINT (-122.401266688 37.783193894)","2021/03/19 03:26:43 AM","2026/02/27 09:50:00 AM","2026/03/06 10:20:52 AM"
"3465","945 Bryant St","945 Bryant St","San Francisco","94103",,"Lease","9","Non-City",,"-122.40545726299996","37.77337280200004","6","Adult Probation",,"POINT (-122.405457263 37.773372802)","2018/10/30 09:27:37 PM","2026/02/27 09:50:00 AM","2026/03/06 10:20:52 AM"
"2091","Valve Station","At 17th Green Stnford","Menlo Park","94025",,"Own","47","Public Utilities Commission",,"-122.18320019499998","37.41636764700007",,,"10,000","POINT (-122.183200195 37.416367647)","2016/09/12 09:00:00 AM","2026/02/27 09:50:00 AM","2026/03/06 10:20:52 AM"
"1938","Pier 48 Warehouse","Pier 48","San Francisco","94158","9900070","Own","46","Port",,"-122.38613510899995","37.77570375100004","6",,"370","POINT (-122.386135109 37.775703751)","2025/10/21 05:28:55 PM","2026/02/27 09:50:00 AM","2026/03/06 10:20:52 AM"
"3025","Aptos Maintenance Facility","139 Aptos Ave","San Francisco","94127","3266A001","Own","49","Recreation And Parks",,"-122.46644188699997","37.72912068900007","7",,"481","POINT (-122.466441887 37.729120689)","2016/09/12 09:00:00 AM","2026/02/27 09:50:00 AM","2026/03/06 10:20:52 AM"
"3246","Rincon Hill Dog Park","Beale St & Bryant St","San Francisco","94105",,"Lease","9","Non-City",,"-122.39004474599994","37.78622608300003","6","Public Works",,"POINT (-122.390044746 37.786226083)","2026/02/27 12:59:30 AM","2026/02/27 09:50:00 AM","2026/03/06 10:20:52 AM"
"1955","Pier 54 - Storage Shed","569 Terry A Francois Blvd","San Francisco","94158","9900070","Own","46","Port","266","-122.38447458099995","37.769992244000036","6",,"370","POINT (-122.384474581 37.769992244)","2025/10/21 05:28:55 PM","2026/02/27 09:50:00 AM","2026/03/06 10:20:52 AM"
"1774","Tire Store","100 Martin Luther King Dr","San Francisco","94117","1263011","Own","49","Recreation And Parks",,"-122.46185493399997","37.76860096100006","7",,"56","POINT (-122.461854934 37.768600961)","2019/02/11 07:19:07 PM","2026/02/27 09:50:00 AM","2026/03/06 10:20:52 AM"
"3325","Ground Lease - 210 Taylor St","210 Taylor St","San Francisco","94102","0331028","Own","103","Mayor",,"-122.41082775599995","37.78445367000006","5",,"1,223","POINT (-122.410827756 37.78445367)","2017/06/29 09:45:04 PM","2026/02/27 09:50:00 AM","2026/03/06 10:20:52 AM"
"471","Chinese Pavilion","50 Stow Lake Dr","San Francisco","94117","1263011","Own","49","Recreation And Parks","1,508","-122.47361367099995","37.768383707000055","7",,"56","POINT (-122.473613671 37.768383707)","2019/02/11 08:02:48 PM","2026/02/27 09:50:00 AM","2026/03/06 10:20:52 AM"
"1867","Willie L. Brown Jr. Middle School","2055 Silver Ave","San Francisco","94124","5346005","Own","16","School District (Sfusd)",,"-122.39891712299999","37.736429076000036","10",,"519","POINT (-122.398917123 37.736429076)","2017/05/30 05:27:50 PM","2026/02/27 09:50:00 AM","2026/03/06 10:20:52 AM"
"1985","Pier 70 - Pier 68 - Substation #4 (bldg #58)","590 20TH ST","San Francisco","94107","9900070","Own","46","Port","820","-122.38595231199997","37.76203009900007","10",,"370","POINT (-122.385952312 37.762030099)","2025/10/21 05:28:55 PM","2026/02/27 09:50:00 AM","2026/03/06 10:20:52 AM"
"3145","ZOO - LOWER RESTROOM*","1 Zoo Rd","San Francisco","94132","7281002","Own","49","Recreation And Parks",,"-122.50402739299994","37.73236557400003","7",,"489","POINT (-122.504027393 37.732365574)","2016/09/12 09:00:00 AM","2026/02/27 09:50:00 AM","2026/03/06 10:20:52 AM"
"1189","North Point Wet-Weather Facility","111 Bay St","San Francisco","94124","0033005","Own","47","Public Utilities Commission","272,250","-122.40883568599997","37.80591405200005","3",,"355","POINT (-122.408835686 37.805914052)","2018/01/08 08:03:16 PM","2026/02/27 09:50:00 AM","2026/03/06 10:20:52 AM"
"907","J. Woods Cable Car Carpentry Shop","1040 Minnesota St","San Francisco","94107","4169002","Own","42","Municipal Transportation Agency",,"-122.39064827699997","37.75703329100003","10",,"820","POINT (-122.390648277 37.757033291)","2016/09/12 09:00:00 AM","2026/02/27 09:50:00 AM","2026/03/06 10:20:52 AM"
"872","Hilltop Park Performance Spaces","2 WILLIE B KENNEDY DR","San Francisco","94124","4713013","Own","49","Recreation And Parks",,"-122.38381575499994","37.73297175300007","10",,"38","POINT (-122.383815755 37.732971753)","2026/02/26 11:48:07 PM","2026/02/27 09:50:00 AM","2026/03/06 10:20:52 AM"
"704","Fire Station #21","1443 Grove St","San Francisco","94117","1200016","Own","38","Fire Department","8,000","-122.44027176799995","37.775409721000074","5",,"326","POINT (-122.440271768 37.775409721)","2016/09/12 09:00:00 AM","2026/02/27 09:50:00 AM","2026/03/06 10:20:52 AM"
"500","Cleveland Elementary","455 Athens St","San Francisco","94112","6075003","Own","16","School District (Sfusd)","34,000","-122.42888008499995","37.720630166000035","11",,"537","POINT (-122.428880085 37.720630166)","2016/09/12 09:00:00 AM","2026/02/27 09:50:00 AM","2026/03/06 10:20:52 AM"
"3343","730 Stanyan St","730 Stanyan St","San Francisco","94117","1249024","Own","103","Mayor",,"-122.45319236099999","37.768714171000056","5",,"1,233","POINT (-122.453192361 37.768714171)","2018/04/24 05:49:03 PM","2026/02/27 09:50:00 AM","2026/03/06 10:20:52 AM"
"1251","Paul Revere Elementary","555 Tompkins Ave","San Francisco","94110","5702030","Own","16","School District (Sfusd)","56,400","-122.41315842399996","37.73726298400004","9",,"524","POINT (-122.413158424 37.737262984)","2016/09/12 09:00:00 AM","2026/02/27 09:50:00 AM","2026/03/06 10:20:52 AM"
"307","Cabin #33","32560 Mather Rd","Groveland","95321","681600100","Own","49","Recreation And Parks",,"-119.85373773099997","37.880830367000044",,,"1,199","POINT (-119.853737731 37.880830367)","2016/09/12 09:00:00 AM","2026/02/27 09:50:00 AM","2026/03/06 10:20:52 AM"
"963","Juvenile Justice Center","375 Woodside Ave","San Francisco","94127","2842007","Own","21","Juvenile Probation","82,551","-122.45274726399998","37.74609555500007","7",,"915","POINT (-122.452747264 37.746095555)","2016/09/12 09:00:00 AM","2026/02/27 09:50:00 AM","2026/03/06 10:20:52 AM"
"1139","MOSCONE CENTER Parking Garage","255 03rd St","San Francisco","94103","3735060","Own","42","Municipal Transportation Agency","255,444","-122.39936722799996","37.78471153700008","6",,"868","POINT (-122.399367228 37.784711537)","2025/10/21 05:09:20 PM","2026/02/27 09:50:00 AM","2026/03/06 10:20:52 AM"
"3210","LAGUNA HONDA - Utils/Equipment","375 Laguna Honda Blvd","San Francisco","94131","2842007","Own","72","Public Health",,"-122.45641572799997","37.749624065000035","7",,"383","POINT (-122.456415728 37.749624065)","2025/10/21 05:09:20 PM","2026/02/27 09:50:00 AM","2026/03/06 10:20:52 AM"
"674","Child Support Services","617 Mission St","San Francisco","94105","3722073","Lease","9","Non-City",,"-122.40010573999996","37.78755180400003","6","Child Support Services","1,156","POINT (-122.40010574 37.787551804)","2017/12/28 07:28:45 PM","2026/02/27 09:50:00 AM","2026/03/06 10:20:52 AM"
"695","Fire Station #13","530 Sansome St","San Francisco","94111","0206017","Own","38","Fire Department","18,790","-122.40135015599998","37.79551871100006","3",,"336","POINT (-122.401350156 37.795518711)","2016/09/12 09:00:00 AM","2026/02/27 09:50:00 AM","2026/03/06 10:20:52 AM"
"1819","Victoria Manalo Draves Bathrooms","55 Sherman St","San Francisco","94103","3754016","Own","49","Recreation And Parks",,"-122.40602660899998","37.77676358800005","6",,"561","POINT (-122.406026609 37.776763588)","2016/09/12 09:00:00 AM","2026/02/27 09:50:00 AM","2026/03/06 10:20:52 AM"
"3265","Mission Family Center","759 South Van Ness Ave","San Francisco","94110",,"Lease","9","Non-City",,"-122.41683774299997","37.76102916900004","9","Public Health",,"POINT (-122.416837743 37.761029169)","2017/12/26 08:03:21 PM","2026/02/27 09:50:00 AM","2026/03/06 10:20:52 AM"
"840","Hamilton Rec Center","1900 Geary Blvd","San Francisco","94115","0703002","Own","49","Recreation And Parks","13,527","-122.43528773699995","37.78457367300007","5",,"117","POINT (-122.435287737 37.784573673)","2016/09/12 09:00:00 AM","2026/02/27 09:50:00 AM","2026/03/06 10:20:52 AM"
"1572","SFUSD -- SPEd Medical Therapy Unit (Laguna)","1015 Laguna St","San Francisco","94102","0758027","Own","16","School District (Sfusd)",,"-122.42731505899997","37.780627663000075","5",,"415","POINT (-122.427315059 37.780627663)","2016/09/12 09:00:00 AM","2026/02/27 09:50:00 AM","2026/03/06 10:20:52 AM"
"1194","Nursery Cold Frames","100 Martin Luther King Dr","San Francisco","94117","1263011","Own","49","Recreation And Parks",,"-122.46226988099994","37.76868561600003","7",,"56","POINT (-122.462269881 37.768685616)","2019/02/11 07:19:07 PM","2026/02/27 09:50:00 AM","2026/03/06 10:20:52 AM"
"3261","564 6th St - Offices","564 6th St","San Francisco","94103",,"Lease","9","Non-City",,"-122.40171173599998","37.77513883100005","6","Adult Probation",,"POINT (-122.401711736 37.775138831)","2017/12/20 11:48:24 PM","2026/02/27 09:50:00 AM","2026/03/06 10:20:52 AM"
"1031","Lowell High","1101 Eucalyptus Dr","San Francisco","94132","7298006","Own","16","School District (Sfusd)",,"-122.483402007","37.73062352900007","4",,"865","POINT (-122.483402007 37.730623529)","2017/03/17 10:18:56 PM","2026/02/27 09:50:00 AM","2026/03/06 10:20:52 AM"
"3514","Behavioral Health Services Site","822 Geary St","San Francisco","94109","0302034","Own","72","Public Health",,"-122.41697942899998","37.78642417000003","3",,"1,292","POINT (-122.416979429 37.78642417)","2022/10/03 09:07:32 PM","2026/02/27 09:50:00 AM","2026/03/06 10:20:52 AM"
"1590","Shorey Childrens Center","1030 Oakdale Ave","San Francisco","94124","4714007","Own","52","Human Services Agency","9,700","-122.38008062299997","37.72903465700006","10",,"190","POINT (-122.380080623 37.729034657)","2023/08/03 04:30:15 AM","2026/02/27 09:50:00 AM","2026/03/06 10:20:52 AM"
"70","Streetlight Warehouse","639 Bryant St","San Francisco","94107","3777052","Own","42","Municipal Transportation Agency","6,400","-122.39860957499997","37.77865813600005","6",,"482","POINT (-122.398609575 37.778658136)","2016/09/12 09:00:00 AM","2026/02/27 09:50:00 AM","2026/03/06 10:20:52 AM"
"1790","Twin Peaks Reservoir","199 Marview Way","San Francisco","94117","2719C023","Own","47","Public Utilities Commission",,"-122.44860157999994","37.75612505700008","7",,"52","POINT (-122.44860158 37.756125057)","2019/09/11 10:25:31 PM","2026/02/27 09:50:00 AM","2026/03/06 10:20:52 AM"
"190","Hunters Point Shipyard Building 606","606 Manseau St","San Francisco","94124","4591A085","Own","45","Police Department","90,000","-122.36743644499995","37.720502415000055","10",,"1,269","POINT (-122.367436445 37.720502415)","2025/10/21 05:31:45 PM","2026/02/27 09:50:00 AM","2026/03/06 10:20:52 AM"
"627","Edison Charter Academy Elementary","3531 22nd St","San Francisco","94114","3630001","Own","16","School District (Sfusd)","59,200","-122.42626570999994","37.754436242000054","8",,"459","POINT (-122.42626571 37.754436242)","2016/09/12 09:00:00 AM","2026/02/27 09:50:00 AM","2026/03/06 10:20:52 AM"
"3303","Wholesale Produce Market - 901 Rankin","901 Rankin St","San Francisco","94124","5281020","Own","63","Gsa - Real Estate Division",,"-122.39521156299998","37.74096298500007","10",,"165","POINT (-122.395211563 37.740962985)","2018/05/25 10:56:53 PM","2026/02/27 09:50:00 AM","2026/03/06 10:20:52 AM"
"1580","Sharon Meadow Bathroom","320 Bowling Green Dr","San Francisco","94117","1263011","Own","49","Recreation And Parks",,"-122.45828314599999","37.768321582000056","7",,"56","POINT (-122.458283146 37.768321582)","2019/02/11 07:46:10 PM","2026/02/27 09:50:00 AM","2026/03/06 10:20:52 AM"
"1970","Pier 70 - Pier 68 - Checkhouse #2, Bldg. #123","590 20TH ST","San Francisco","94107","9900070","Own","46","Port","1","-122.38595231199997","37.76203009900007","10",,"370","POINT (-122.385952312 37.762030099)","2025/10/21 05:28:55 PM","2026/02/27 09:50:00 AM","2026/03/06 10:20:52 AM"
"330","Cabin #70 & #71","32560 Mather Rd","Groveland","95321","681600100","Own","49","Recreation And Parks",,"-119.85373773099997","37.880830367000044",,,"1,199","POINT (-119.853737731 37.880830367)","2016/09/12 09:00:00 AM","2026/02/27 09:50:00 AM","2026/03/06 10:20:52 AM"
"1002","Leach Fields","32560 Mather Rd","Groveland","95321","681600100","Own","49","Recreation And Parks",,"-119.85613576899999","37.881269985000074",,,"1,199","POINT (-119.856135769 37.881269985)","2016/09/12 09:00:00 AM","2026/02/27 09:50:00 AM","2026/03/06 10:20:52 AM"
"2002","Pier 70 - SWL 349 - UIW Machine Shop, Bldg. #114","420 22nd St","San Francisco","94107","4111003","Own","46","Port","8,000","-122.38300091999997","37.76039202100003","10",,"733","POINT (-122.38300092 37.760392021)","2018/01/18 10:07:25 PM","2026/02/27 09:50:00 AM","2026/03/06 10:20:52 AM"
"784","George Washington High","600 32nd Ave","San Francisco","94121","1574001","Own","16","School District (Sfusd)","228,800","-122.49102297299999","37.777877680000074","1","Public Utilities Commission","888","POINT (-122.491022973 37.77787768)","2016/09/12 09:00:00 AM","2026/02/27 09:50:00 AM","2026/03/06 10:20:52 AM"
"198","Brooks Hall","30 DR CARLTON B GOODLETT PL","San Francisco","94102","0788001","Own","63","Gsa - Real Estate Division","114,789","-122.41795446399999","37.77907985200005","5","Public Library: Public Works: Arts Commission: Public Health: Gsa - Real Estate Division: Municipal Transportation Agency: Law Library: Elections","761","POINT (-122.417954464 37.779079852)","2026/02/27 12:09:27 AM","2026/02/27 09:50:00 AM","2026/03/06 10:20:52 AM"
"1939","Pier 49 - Fishermans Grotto No. 9 (Wharf J-1)","2847 Taylor St","San Francisco","94133","9900070","Own","46","Port","18,796","-122.41614036699997","37.80893012800004","3",,"370","POINT (-122.416140367 37.808930128)","2025/10/21 05:28:55 PM","2026/02/27 09:50:00 AM","2026/03/06 10:20:52 AM"
"3474","West Portal Clubhouse","131 Lenox Way","San Francisco","94127","2979013A","Own","49","Recreation And Parks",,"-122.46528256099998","37.741752424000026","7",,"63","POINT (-122.465282561 37.741752424)","2019/02/21 11:02:49 PM","2026/02/27 09:50:00 AM","2026/03/06 10:20:52 AM"
"1098","METRO EAST MAINT/OPS FACILITY","601 25th St","San Francisco","94107","4298002","Own","42","Municipal Transportation Agency","180,000","-122.38529745999995","37.751960799000074","10",,"862","POINT (-122.38529746 37.751960799)","2022/08/23 04:50:24 PM","2026/02/27 09:50:00 AM","2026/03/06 10:20:52 AM"
"551","Cow Hollow Clubhouse","1 Miley St","San Francisco","94123","0942029","Own","49","Recreation And Parks","675","-122.44473816899995","37.79741037900004","2",,"100","POINT (-122.444738169 37.797410379)","2016/09/12 09:00:00 AM","2026/02/27 09:50:00 AM","2026/03/06 10:20:52 AM"
"3096","Pier 80 Administration Building","Pier 80","San Francisco","94124","4304002","Own","46","Port",,"-122.38157575699995","37.75048091600007","10",,"409","POINT (-122.381575757 37.750480916)","2018/01/18 10:07:24 PM","2026/02/27 09:50:00 AM","2026/03/06 10:20:52 AM"
"857","Helen Crocker Russell Library of Horticulture","1199 09th Ave","San Francisco","94117","1263011","Own","49","Recreation And Parks",,"-122.46741594399998","37.76696902400005","7",,"56","POINT (-122.467415944 37.766969024)","2019/02/06 10:20:54 PM","2026/02/27 09:50:00 AM","2026/03/06 10:20:52 AM"
"298","Cabin #24","32560 Mather Rd","Groveland","95321","681600100","Own","49","Recreation And Parks",,"-119.85373773099997","37.880830367000044",,,"1,199","POINT (-119.853737731 37.880830367)","2016/09/12 09:00:00 AM","2026/02/27 09:50:00 AM","2026/03/06 10:20:52 AM"
"700","Fire Station #18","1935 32nd Ave","San Francisco","94116","2102006","Own","38","Fire Department","15,900","-122.49054390699996","37.75098636300004","4",,"321","POINT (-122.490543907 37.750986363)","2016/09/12 09:00:00 AM","2026/02/27 09:50:00 AM","2026/03/06 10:20:52 AM"
"63","48TH AVE/ORTEGA ST SFMTA Operator Bathroom","48th Ave & Ortega St","San Francisco","94116",,"Own","42","Municipal Transportation Agency",,"-122.50733083799997","37.750886630000025","4",,"0","POINT (-122.507330838 37.75088663)","2025/10/21 05:09:20 PM","2026/02/27 09:50:00 AM","2026/03/06 10:20:52 AM"
"576","Davies Symphony Hall","201 Van Ness Ave","San Francisco","94102","0810001","Own","53","War Memorial","203,500","-122.42047689199995","37.77767015100005","5",,"185","POINT (-122.420476892 37.777670151)","2016/09/12 09:00:00 AM","2026/02/27 09:50:00 AM","2026/03/06 10:20:52 AM"
"3055","EQUIP/HAYBARN LOG CABIN","500 Log Cabin Ranch Rd","La Honda","94020","083300010","Own","21","Juvenile Probation",,"-122.25645900699999","37.30479052600003",,,"921","POINT (-122.256459007 37.304790526)","2025/07/09 08:55:39 PM","2026/02/27 09:50:00 AM","2026/03/06 10:20:52 AM"
"1666","Strybing Greenhouse","1199 09th Ave","San Francisco","94117","1263011","Own","49","Recreation And Parks","2,200","-122.47105649299999","37.766128673000026","7",,"56","POINT (-122.471056493 37.766128673)","2019/02/11 07:22:30 PM","2026/02/27 09:50:00 AM","2026/03/06 10:20:52 AM"
"3318","Leadership Charter High School","350 Seneca Ave","San Francisco","94112","6962001","Own","16","School District (Sfusd)",,"-122.44526103099997","37.72167383100003","11",,"657","POINT (-122.445261031 37.721673831)","2017/05/25 10:26:59 PM","2026/02/27 09:50:00 AM","2026/03/06 10:20:52 AM"
"3408","AIR TRAIN TERMINAL T2 - 379","379 UPPER DOMESTIC LOOP","San Francisco","94128",,"Own","34","Airport (Sfo)",,"-122.38457793999999","37.616739118000055",,,"635","POINT (-122.38457794 37.616739118)","2025/10/21 05:09:20 PM","2026/02/27 09:50:00 AM","2026/03/06 10:20:52 AM"
"3295","County Jail #6 - Training Facility","1 Moreland Dr","San Bruno","94066","017530010","Own","15","Sheriff","50,000","-122.46124477499995","37.62765766800004",,,"935","POINT (-122.461244775 37.627657668)","2025/07/09 08:56:52 PM","2026/02/27 09:50:00 AM","2026/03/06 10:20:52 AM"
"348","Cabin #95","32560 Mather Rd","Groveland","95321","681600100","Own","49","Recreation And Parks",,"-119.85373773099997","37.880830367000044",,,"1,199","POINT (-119.853737731 37.880830367)","2016/09/12 09:00:00 AM","2026/02/27 09:50:00 AM","2026/03/06 10:20:52 AM"
"447","West Portal Playground and SFMTA Central Control","131 Lenox Way","San Francisco","94127","2979013A","Own","42","Municipal Transportation Agency","3,375","-122.46532205399996","37.74173148600005","7",,"63","POINT (-122.465322054 37.741731486)","2019/02/21 10:40:25 PM","2026/02/27 09:50:00 AM","2026/03/06 10:20:52 AM"
"938","Jefferson Square Bathrooms","997 Gough St","San Francisco","94109","0745001","Own","49","Recreation And Parks","325","-122.42548988399994","37.78154837300008","5",,"114","POINT (-122.425489884 37.781548373)","2016/09/12 09:00:00 AM","2026/02/27 09:50:00 AM","2026/03/06 10:20:52 AM"
"3034","SWL 302 Castagnola Rest.","286 Jefferson St","San Francisco","94133","9900070","Own","46","Port","14,806","-122.41656471499999","37.80889916800004","3",,"370","POINT (-122.416564715 37.808899168)","2025/10/21 05:28:55 PM","2026/02/27 09:50:00 AM","2026/03/06 10:20:52 AM"
"1615","South of Market Mental Health","760 Harrison St","San Francisco","94107","3751150","Lease","9","Non-City",,"-122.39885157199996","37.78167075400006","6","Public Health","1,161","POINT (-122.398851572 37.781670754)","2017/12/27 04:53:30 PM","2026/02/27 09:50:00 AM","2026/03/06 10:20:52 AM"
"1418","Roosevelt Middle","460 Arguello Blvd","San Francisco","94118","1061049","Own","16","School District (Sfusd)","121,000","-122.45835614899994","37.782285288000026","2",,"425","POINT (-122.458356149 37.782285288)","2016/09/12 09:00:00 AM","2026/02/27 09:50:00 AM","2026/03/06 10:20:52 AM"
"584","Workforce Development Center – Mission","3120 Mission St","San Francisco","94110",,"Lease","9","Non-City",,"-122.41895847599994","37.74756262300008","9","Human Services Agency",,"POINT (-122.418958476 37.747562623)","2019/09/11 10:27:30 PM","2026/02/27 09:50:00 AM","2026/03/06 10:20:52 AM"
"164","Bay Bridge Pump Pier W-1","475 Spear St","San Francisco","94105","3769001","Own","46","Port",,"-122.38835424899997","37.78820212900007","6","Public Utilities Commission","468","POINT (-122.388354249 37.788202129)","2025/10/21 05:21:51 PM","2026/02/27 09:50:00 AM","2026/03/06 10:20:52 AM"
"979","La Grande Pump Station/Tanks","Ina Ct & La Grande Ave","San Francisco","94112","6190066","Own","49","Recreation And Parks",,"-122.42317721699999","37.72356859900003","11",,"779","POINT (-122.423177217 37.723568599)","2018/11/09 12:05:24 AM","2026/02/27 09:50:00 AM","2026/03/06 10:20:52 AM"
"1044","Main Library","100 Larkin St","San Francisco","94102","0354001","Own","48","Public Library","376,000","-122.41615205","37.779081776000055","5",,"553","POINT (-122.41615205 37.779081776)","2016/09/12 09:00:00 AM","2026/02/27 09:50:00 AM","2026/03/06 10:20:52 AM"
"3128","ZOO - BEAR DENS*","1 Zoo Rd","San Francisco","94132","7281002","Own","49","Recreation And Parks",,"-122.50190865999997","37.731500855000036","7",,"489","POINT (-122.50190866 37.731500855)","2016/09/12 09:00:00 AM","2026/02/27 09:50:00 AM","2026/03/06 10:20:52 AM"
